{"features": [{"geometry": {"coordinates": [-121.90167, 36.618233000000004], "type": "Point"}, "properties": {"marker-symbol": "circle-15", "title": "Monterey Bay Aquarium"}, "type": "Feature"}, {"geometry": {"coordinates": [-87.62782, 41.883305], "type": "Point"}, "properties": {"marker-symbol": "circle-15", "title": "Chicago Greeter"}, "type": "Feature"}, {"geometry": {"coordinates": [-115.45626999999999, 36.21139], "type": "Point"}, "properties": {"marker-symbol": "circle-15", "title": "Red Rock Canyon National Conservation Area"}, "type": "Feature"}, {"geometry": {"coordinates": [-84.3948, 33.763187], "type": "Point"}, "properties": {"marker-symbol": "circle-15", "title": "Georgia Aquarium"}, "type": "Feature"}, {"geometry": {"coordinates": [-98.48649, 29.425806], "type": "Point"}, "properties": {"marker-symbol": "circle-15", "title": "The Alamo"}, "type": "Feature"}, {"geometry": {"coordinates": [-90.06378000000001, 29.957872], "type": "Point"}, "properties": {"marker-symbol": "circle-15", "title": "St. Louis Cathedral"}, "type": "Feature"}, {"geometry": {"coordinates": [-122.44755, 37.752567], "type": "Point"}, "properties": {"marker-symbol": "circle-15", "title": "Twin Peaks"}, "type": "Feature"}, {"geometry": {"coordinates": [-81.39743, 40.820908], "type": "Point"}, "properties": {"marker-symbol": "circle-15", "title": "Pro Football Hall of Fame"}, "type": "Feature"}, {"geometry": {"coordinates": [-74.0132, 40.71324], "type": "Point"}, "properties": {"marker-symbol": "circle-15", "title": "One World Observatory - World Trade Center"}, "type": "Feature"}, {"geometry": {"coordinates": [-103.50776, 46.931763000000004], "type": "Point"}, "properties": {"marker-symbol": "circle-15", "title": "Theodore Roosevelt National Park"}, "type": "Feature"}, {"geometry": {"coordinates": [-90.07125, 29.952244], "type": "Point"}, "properties": {"marker-symbol": "circle-15", "title": "Magazine Street"}, "type": "Feature"}, {"geometry": {"coordinates": [-73.93984, 41.71048], "type": "Point"}, "properties": {"marker-symbol": "circle-15", "title": "Walkway Over the Hudson State Historic Park"}, "type": "Feature"}, {"geometry": {"coordinates": [-95.46297, 29.738432], "type": "Point"}, "properties": {"marker-symbol": "circle-15", "title": "The Galleria"}, "type": "Feature"}, {"geometry": {"coordinates": [-71.67984, 44.097042], "type": "Point"}, "properties": {"marker-symbol": "circle-15", "title": "Flume Gorge"}, "type": "Feature"}, {"geometry": {"coordinates": [-75.13064, 39.944077], "type": "Point"}, "properties": {"marker-symbol": "circle-15", "title": "Adventure Aquarium"}, "type": "Feature"}, {"geometry": {"coordinates": [-84.49806, 39.0941], "type": "Point"}, "properties": {"marker-symbol": "circle-15", "title": "Newport Aquarium"}, "type": "Feature"}, {"geometry": {"coordinates": [-80.9471, 24.76568], "type": "Point"}, "properties": {"marker-symbol": "circle-15", "title": "Dolphin Research Center"}, "type": "Feature"}, {"geometry": {"coordinates": [-80.135826, 25.790594], "type": "Point"}, "properties": {"marker-symbol": "circle-15", "title": "Lincoln Road"}, "type": "Feature"}, {"geometry": {"coordinates": [-108.68611000000001, 39.0425], "type": "Point"}, "properties": {"marker-symbol": "circle-15", "title": "Colorado National Monument"}, "type": "Feature"}, {"geometry": {"coordinates": [-97.74051999999999, 30.274297999999998], "type": "Point"}, "properties": {"marker-symbol": "circle-15", "title": "State Capitol"}, "type": "Feature"}, {"geometry": {"coordinates": [-122.71445, 45.509445], "type": "Point"}, "properties": {"marker-symbol": "circle-15", "title": "Oregon Zoo"}, "type": "Feature"}, {"geometry": {"coordinates": [-103.45611, 43.877213], "type": "Point"}, "properties": {"marker-symbol": "circle-15", "title": "Mount Rushmore National Memorial"}, "type": "Feature"}, {"geometry": {"coordinates": [-87.60812, 41.891438], "type": "Point"}, "properties": {"marker-symbol": "circle-15", "title": "Navy Pier"}, "type": "Feature"}, {"geometry": {"coordinates": [-75.149895, 39.948803000000005], "type": "Point"}, "properties": {"marker-symbol": "circle-15", "title": "Independence Hall"}, "type": "Feature"}, {"geometry": {"coordinates": [-110.819336, 32.315865], "type": "Point"}, "properties": {"marker-symbol": "circle-15", "title": "Sabino Canyon"}, "type": "Feature"}, {"geometry": {"coordinates": [-90.130165, 29.920734000000003], "type": "Point"}, "properties": {"marker-symbol": "circle-15", "title": "Audubon Zoo"}, "type": "Feature"}, {"geometry": {"coordinates": [-78.88849, 33.716324], "type": "Point"}, "properties": {"marker-symbol": "circle-15", "title": "Palace Theatre"}, "type": "Feature"}, {"geometry": {"coordinates": [-111.50965, 35.170486], "type": "Point"}, "properties": {"marker-symbol": "circle-15", "title": "Walnut Canyon National Monument"}, "type": "Feature"}, {"geometry": {"coordinates": [-74.00216999999999, 40.707138], "type": "Point"}, "properties": {"marker-symbol": "circle-15", "title": "South Street Seaport"}, "type": "Feature"}, {"geometry": {"coordinates": [-77.22484, 39.81069], "type": "Point"}, "properties": {"marker-symbol": "circle-15", "title": "Gettysburg National Military Park"}, "type": "Feature"}, {"geometry": {"coordinates": [-98.499725, 29.425278000000002], "type": "Point"}, "properties": {"marker-symbol": "circle-15", "title": "San Antonio Market Square"}, "type": "Feature"}, {"geometry": {"coordinates": [-98.499725, 29.425278000000002], "type": "Point"}, "properties": {"marker-symbol": "circle-15", "title": "San Antonio Market Square"}, "type": "Feature"}, {"geometry": {"coordinates": [-71.11839, 42.373295], "type": "Point"}, "properties": {"marker-symbol": "circle-15", "title": "Harvard University"}, "type": "Feature"}, {"geometry": {"coordinates": [-114.73827, 36.016], "type": "Point"}, "properties": {"marker-symbol": "circle-15", "title": "Hoover Dam"}, "type": "Feature"}, {"geometry": {"coordinates": [-87.62255, 41.882557], "type": "Point"}, "properties": {"marker-symbol": "circle-15", "title": "Millennium Park"}, "type": "Feature"}, {"geometry": {"coordinates": [-73.99600000000001, 40.706833], "type": "Point"}, "properties": {"marker-symbol": "circle-15", "title": "Brooklyn Bridge"}, "type": "Feature"}, {"geometry": {"coordinates": [-115.17428000000001, 36.104202], "type": "Point"}, "properties": {"marker-symbol": "circle-15", "title": "Blue Man Group"}, "type": "Feature"}, {"geometry": {"coordinates": [-98.47983599999999, 29.362225], "type": "Point"}, "properties": {"marker-symbol": "circle-15", "title": "Mission San Jose"}, "type": "Feature"}, {"geometry": {"coordinates": [-73.996475, 40.70185], "type": "Point"}, "properties": {"marker-symbol": "circle-15", "title": "Brooklyn Bridge Park"}, "type": "Feature"}, {"geometry": {"coordinates": [-98.47241, 29.463888], "type": "Point"}, "properties": {"marker-symbol": "circle-15", "title": "San Antonio Zoo"}, "type": "Feature"}, {"geometry": {"coordinates": [-73.97867600000001, 40.758736], "type": "Point"}, "properties": {"marker-symbol": "circle-15", "title": "Rockefeller Center"}, "type": "Feature"}, {"geometry": {"coordinates": [-111.88824, 40.777214], "type": "Point"}, "properties": {"marker-symbol": "circle-15", "title": "Utah State Capitol"}, "type": "Feature"}, {"geometry": {"coordinates": [-122.34299999999999, 47.60743], "type": "Point"}, "properties": {"marker-symbol": "circle-15", "title": "Seattle Aquarium"}, "type": "Feature"}, {"geometry": {"coordinates": [-95.96056, 41.245438], "type": "Point"}, "properties": {"marker-symbol": "circle-15", "title": "Gerald R. Ford Birthsite and Gardens"}, "type": "Feature"}, {"geometry": {"coordinates": [-82.01455, 26.452903999999997], "type": "Point"}, "properties": {"marker-symbol": "circle-15", "title": "Sanibel Island Lighthouse"}, "type": "Feature"}, {"geometry": {"coordinates": [-103.42661, 43.89096], "type": "Point"}, "properties": {"marker-symbol": "circle-15", "title": "Gutzon Borglum Historical Center"}, "type": "Feature"}, {"geometry": {"coordinates": [-84.37374, 33.7847], "type": "Point"}, "properties": {"marker-symbol": "circle-15", "title": "Piedmont Park"}, "type": "Feature"}, {"geometry": {"coordinates": [-81.87996, 26.634418], "type": "Point"}, "properties": {"marker-symbol": "circle-15", "title": "Edison & Ford Winter Estates"}, "type": "Feature"}, {"geometry": {"coordinates": [-73.98566, 40.757453999999996], "type": "Point"}, "properties": {"marker-symbol": "circle-15", "title": "The Lion King"}, "type": "Feature"}, {"geometry": {"coordinates": [-76.52920999999999, 38.13599], "type": "Point"}, "properties": {"marker-symbol": "circle-15", "title": "Piney Point Lighthouse"}, "type": "Feature"}, {"geometry": {"coordinates": [-117.27309, 32.850586], "type": "Point"}, "properties": {"marker-symbol": "circle-15", "title": "La Jolla Cove"}, "type": "Feature"}, {"geometry": {"coordinates": [-95.39095999999999, 29.714240999999998], "type": "Point"}, "properties": {"marker-symbol": "circle-15", "title": "Houston Zoo"}, "type": "Feature"}, {"geometry": {"coordinates": [-71.06563, 42.355083], "type": "Point"}, "properties": {"marker-symbol": "circle-15", "title": "Boston Common"}, "type": "Feature"}, {"geometry": {"coordinates": [-80.84331, 35.221123], "type": "Point"}, "properties": {"marker-symbol": "circle-15", "title": "NASCAR Hall of Fame"}, "type": "Feature"}, {"geometry": {"coordinates": [-80.60252, 28.36764], "type": "Point"}, "properties": {"marker-symbol": "circle-15", "title": "Cocoa Beach Pier"}, "type": "Feature"}, {"geometry": {"coordinates": [-71.08218000000001, 42.34749], "type": "Point"}, "properties": {"marker-symbol": "circle-15", "title": "Prudential Center"}, "type": "Feature"}, {"geometry": {"coordinates": [-74.92322, 42.699936], "type": "Point"}, "properties": {"marker-symbol": "circle-15", "title": "National Baseball Hall of Fame and Museum"}, "type": "Feature"}, {"geometry": {"coordinates": [-119.69206000000001, 34.40965], "type": "Point"}, "properties": {"marker-symbol": "circle-15", "title": "Santa Barbara Waterfront"}, "type": "Feature"}, {"geometry": {"coordinates": [-77.01292, 38.88813], "type": "Point"}, "properties": {"marker-symbol": "circle-15", "title": "United States Botanic Garden"}, "type": "Feature"}, {"geometry": {"coordinates": [-122.47868000000001, 37.819946], "type": "Point"}, "properties": {"marker-symbol": "circle-15", "title": "Golden Gate Bridge"}, "type": "Feature"}, {"geometry": {"coordinates": [-117.74266999999999, 33.649693], "type": "Point"}, "properties": {"marker-symbol": "circle-15", "title": "Irvine Spectrum Center"}, "type": "Feature"}, {"geometry": {"coordinates": [-77.94948000000001, 34.232240000000004], "type": "Point"}, "properties": {"marker-symbol": "circle-15", "title": "Riverwalk"}, "type": "Feature"}, {"geometry": {"coordinates": [-118.24989, 34.055237], "type": "Point"}, "properties": {"marker-symbol": "circle-15", "title": "Walt Disney Concert Hall"}, "type": "Feature"}, {"geometry": {"coordinates": [-122.33417, 47.602740000000004], "type": "Point"}, "properties": {"marker-symbol": "circle-15", "title": "Seattle Untamed Tours"}, "type": "Feature"}, {"geometry": {"coordinates": [-77.01108, 38.896824], "type": "Point"}, "properties": {"marker-symbol": "circle-15", "title": "Washington Court Hotel on Capitol Hill"}, "type": "Feature"}, {"geometry": {"coordinates": [-90.84985, 32.34655], "type": "Point"}, "properties": {"marker-symbol": "circle-15", "title": "Vicksburg National Military Park"}, "type": "Feature"}, {"geometry": {"coordinates": [-93.05389, 34.513756], "type": "Point"}, "properties": {"marker-symbol": "circle-15", "title": "Fordyce Bathhouse (Vistor Center)"}, "type": "Feature"}, {"geometry": {"coordinates": [-156.51228, 20.79222], "type": "Point"}, "properties": {"marker-symbol": "circle-15", "title": "Maui Ocean Center"}, "type": "Feature"}, {"geometry": {"coordinates": [-88.839005, 41.36381], "type": "Point"}, "properties": {"marker-symbol": "circle-15", "title": "Washington Square"}, "type": "Feature"}, {"geometry": {"coordinates": [-80.12947, 25.799960000000002], "type": "Point"}, "properties": {"marker-symbol": "circle-15", "title": "Miami Beach Boardwalk"}, "type": "Feature"}, {"geometry": {"coordinates": [-112.1249, 36.06372], "type": "Point"}, "properties": {"marker-symbol": "circle-15", "title": "Grand Canyon South Rim"}, "type": "Feature"}, {"geometry": {"coordinates": [-122.39806999999999, 47.666706], "type": "Point"}, "properties": {"marker-symbol": "circle-15", "title": "Hiram M. Chittenden Locks"}, "type": "Feature"}, {"geometry": {"coordinates": [-114.74223, 36.012638], "type": "Point"}, "properties": {"marker-symbol": "circle-15", "title": "Hoover Dam Bypass"}, "type": "Feature"}, {"geometry": {"coordinates": [-77.02602399999999, 38.888785999999996], "type": "Point"}, "properties": {"marker-symbol": "circle-15", "title": "Smithsonian Institution Building"}, "type": "Feature"}, {"geometry": {"coordinates": [-74.0094, 40.701824], "type": "Point"}, "properties": {"marker-symbol": "circle-15", "title": "New York Helicopter"}, "type": "Feature"}, {"geometry": {"coordinates": [-75.98356, 36.821377000000005], "type": "Point"}, "properties": {"marker-symbol": "circle-15", "title": "Virginia Aquarium & Marine Science Center"}, "type": "Feature"}, {"geometry": {"coordinates": [-69.260605, 43.917759999999994], "type": "Point"}, "properties": {"marker-symbol": "circle-15", "title": "Marshall Point Lighthouse Museum"}, "type": "Feature"}, {"geometry": {"coordinates": [-96.609344, 33.049274], "type": "Point"}, "properties": {"marker-symbol": "circle-15", "title": "Southfork Ranch"}, "type": "Feature"}, {"geometry": {"coordinates": [0.0, 0.0], "type": "Point"}, "properties": {"marker-symbol": "circle-15", "title": "Hawaii Reise Tipps"}, "type": "Feature"}, {"geometry": {"coordinates": [-95.35953, 29.753320000000002], "type": "Point"}, "properties": {"marker-symbol": "circle-15", "title": "Discovery Green"}, "type": "Feature"}, {"geometry": {"coordinates": [-81.468704, 28.44302], "type": "Point"}, "properties": {"marker-symbol": "circle-15", "title": "SEA LIFE Orlando Aquarium"}, "type": "Feature"}, {"geometry": {"coordinates": [-87.79443, 41.890377], "type": "Point"}, "properties": {"marker-symbol": "circle-15", "title": "Ernest Hemingway Birthplace and Museum"}, "type": "Feature"}, {"geometry": {"coordinates": [-82.63153, 27.765573999999997], "type": "Point"}, "properties": {"marker-symbol": "circle-15", "title": "The Dali Museum"}, "type": "Feature"}, {"geometry": {"coordinates": [-81.47058, 28.446276], "type": "Point"}, "properties": {"marker-symbol": "circle-15", "title": "Ripley's Believe It or Not! Orlando"}, "type": "Feature"}, {"geometry": {"coordinates": [-122.40642, 37.793903], "type": "Point"}, "properties": {"marker-symbol": "circle-15", "title": "Chinatown"}, "type": "Feature"}, {"geometry": {"coordinates": [-86.81317, 36.14987], "type": "Point"}, "properties": {"marker-symbol": "circle-15", "title": "Centennial Park"}, "type": "Feature"}, {"geometry": {"coordinates": [-104.89052, 39.008334999999995], "type": "Point"}, "properties": {"marker-symbol": "circle-15", "title": "United States Air Force Academy"}, "type": "Feature"}, {"geometry": {"coordinates": [-81.56100500000001, 28.356958000000002], "type": "Point"}, "properties": {"marker-symbol": "circle-15", "title": "Walt Disney: One Man's Dream"}, "type": "Feature"}, {"geometry": {"coordinates": [-122.40982, 37.808673999999996], "type": "Point"}, "properties": {"marker-symbol": "circle-15", "title": "Pier 39"}, "type": "Feature"}, {"geometry": {"coordinates": [-77.02248399999999, 38.894024], "type": "Point"}, "properties": {"marker-symbol": "circle-15", "title": "United States Navy Memorial and Naval Heritage Center"}, "type": "Feature"}, {"geometry": {"coordinates": [-81.579666, 28.421335], "type": "Point"}, "properties": {"marker-symbol": "circle-15", "title": "Under the Sea - Journey of The Little Mermaid"}, "type": "Feature"}, {"geometry": {"coordinates": [-115.17277, 36.081944], "type": "Point"}, "properties": {"marker-symbol": "circle-15", "title": "Welcome to Fabulous Las Vegas Sign"}, "type": "Feature"}, {"geometry": {"coordinates": [-77.02611, 38.891315000000006], "type": "Point"}, "properties": {"marker-symbol": "circle-15", "title": "Smithsonian National Museum of Natural History"}, "type": "Feature"}, {"geometry": {"coordinates": [-112.15125, 36.07325], "type": "Point"}, "properties": {"marker-symbol": "circle-15", "title": "Powell Point"}, "type": "Feature"}, {"geometry": {"coordinates": [-88.59541999999999, 37.08699], "type": "Point"}, "properties": {"marker-symbol": "circle-15", "title": "William Clark Market House Museum"}, "type": "Feature"}, {"geometry": {"coordinates": [-80.10387, 26.12399], "type": "Point"}, "properties": {"marker-symbol": "circle-15", "title": "Fort Lauderdale Beach"}, "type": "Feature"}, {"geometry": {"coordinates": [-86.15696, 39.773379999999996], "type": "Point"}, "properties": {"marker-symbol": "circle-15", "title": "Indiana War Memorial"}, "type": "Feature"}, {"geometry": {"coordinates": [-110.09705, 36.97672], "type": "Point"}, "properties": {"marker-symbol": "circle-15", "title": "Monument Valley Navajo Tribal Park"}, "type": "Feature"}, {"geometry": {"coordinates": [-73.93528, 41.7675], "type": "Point"}, "properties": {"marker-symbol": "circle-15", "title": "Franklin Delano Roosevelt Home"}, "type": "Feature"}, {"geometry": {"coordinates": [-122.41315, 37.795265], "type": "Point"}, "properties": {"marker-symbol": "circle-15", "title": "Cable Cars"}, "type": "Feature"}, {"geometry": {"coordinates": [-157.73917, 21.36713], "type": "Point"}, "properties": {"marker-symbol": "circle-15", "title": "The Oahu Experience"}, "type": "Feature"}, {"geometry": {"coordinates": [-121.35262, 40.26181], "type": "Point"}, "properties": {"marker-symbol": "circle-15", "title": "Kohm Yah-mah-nee Visitor Center"}, "type": "Feature"}, {"geometry": {"coordinates": [-77.02305600000001, 38.897870000000005], "type": "Point"}, "properties": {"marker-symbol": "circle-15", "title": "National Portrait Gallery"}, "type": "Feature"}, {"geometry": {"coordinates": [-77.00583, 38.89058], "type": "Point"}, "properties": {"marker-symbol": "circle-15", "title": "Supreme Court"}, "type": "Feature"}, {"geometry": {"coordinates": [-73.90264, 40.74633], "type": "Point"}, "properties": {"marker-symbol": "circle-15", "title": "NYC Adventure Tours"}, "type": "Feature"}, {"geometry": {"coordinates": [-71.85696, 41.070953], "type": "Point"}, "properties": {"marker-symbol": "circle-15", "title": "Montauk Point Lighthouse"}, "type": "Feature"}, {"geometry": {"coordinates": [0.0, 0.0], "type": "Point"}, "properties": {"marker-symbol": "circle-15", "title": "SFMTA"}, "type": "Feature"}, {"geometry": {"coordinates": [-90.0653, 29.957720000000002], "type": "Point"}, "properties": {"marker-symbol": "circle-15", "title": "Royal Street"}, "type": "Feature"}, {"geometry": {"coordinates": [-77.062836, 38.905], "type": "Point"}, "properties": {"marker-symbol": "circle-15", "title": "Georgetown"}, "type": "Feature"}, {"geometry": {"coordinates": [-157.9284, 21.647968], "type": "Point"}, "properties": {"marker-symbol": "circle-15", "title": "Laie Hawaii Temple"}, "type": "Feature"}, {"geometry": {"coordinates": [-73.969086, 41.851864], "type": "Point"}, "properties": {"marker-symbol": "circle-15", "title": "Headless Horseman Hayrides"}, "type": "Feature"}, {"geometry": {"coordinates": [-119.35288999999999, 36.32586], "type": "Point"}, "properties": {"marker-symbol": "circle-15", "title": "Adventure Park"}, "type": "Feature"}, {"geometry": {"coordinates": [-90.05688, 29.961472999999998], "type": "Point"}, "properties": {"marker-symbol": "circle-15", "title": "Hidden Adventure Tours"}, "type": "Feature"}, {"geometry": {"coordinates": [-84.39315, 33.760773], "type": "Point"}, "properties": {"marker-symbol": "circle-15", "title": "Centennial Olympic Park"}, "type": "Feature"}, {"geometry": {"coordinates": [-111.37228, 35.520943], "type": "Point"}, "properties": {"marker-symbol": "circle-15", "title": "Wupatki National Monument"}, "type": "Feature"}, {"geometry": {"coordinates": [-115.1684, 36.12297], "type": "Point"}, "properties": {"marker-symbol": "circle-15", "title": "Rock of Ages"}, "type": "Feature"}, {"geometry": {"coordinates": [-88.1592, 47.4597], "type": "Point"}, "properties": {"marker-symbol": "circle-15", "title": "Eagle Harbor Lighthouse and Museums"}, "type": "Feature"}, {"geometry": {"coordinates": [0.0, 0.0], "type": "Point"}, "properties": {"marker-symbol": "circle-15", "title": "Northfield Historical Society Museum"}, "type": "Feature"}, {"geometry": {"coordinates": [-149.88605, 61.21776], "type": "Point"}, "properties": {"marker-symbol": "circle-15", "title": "Alaska Law Enforcement Museum"}, "type": "Feature"}, {"geometry": {"coordinates": [-75.17921, 39.96502], "type": "Point"}, "properties": {"marker-symbol": "circle-15", "title": "Rocky Statue"}, "type": "Feature"}, {"geometry": {"coordinates": [-122.34998, 47.62126], "type": "Point"}, "properties": {"marker-symbol": "circle-15", "title": "Seattle Center Monorail"}, "type": "Feature"}, {"geometry": {"coordinates": [-74.01331, 40.712856], "type": "Point"}, "properties": {"marker-symbol": "circle-15", "title": "Freedom Tower"}, "type": "Feature"}, {"geometry": {"coordinates": [-92.47731999999999, 44.036274], "type": "Point"}, "properties": {"marker-symbol": "circle-15", "title": "Assisi Heights"}, "type": "Feature"}, {"geometry": {"coordinates": [-73.97674599999999, 40.762203], "type": "Point"}, "properties": {"marker-symbol": "circle-15", "title": "Central Park Tours & Bike Rentals"}, "type": "Feature"}, {"geometry": {"coordinates": [-96.80077, 32.787663], "type": "Point"}, "properties": {"marker-symbol": "circle-15", "title": "Dallas Museum of Art"}, "type": "Feature"}, {"geometry": {"coordinates": [-97.7416, 30.268019], "type": "Point"}, "properties": {"marker-symbol": "circle-15", "title": "The Driskill"}, "type": "Feature"}, {"geometry": {"coordinates": [-81.58740999999999, 28.357376000000002], "type": "Point"}, "properties": {"marker-symbol": "circle-15", "title": "Nemo- The Musical at Disney's Animal Kingdom"}, "type": "Feature"}, {"geometry": {"coordinates": [-72.686035, 41.536903], "type": "Point"}, "properties": {"marker-symbol": "circle-15", "title": "Wadsworth Falls State Park"}, "type": "Feature"}, {"geometry": {"coordinates": [-157.81467, 21.276075], "type": "Point"}, "properties": {"marker-symbol": "circle-15", "title": "Bike Tour Hawaii"}, "type": "Feature"}, {"geometry": {"coordinates": [-156.45265, 20.73239], "type": "Point"}, "properties": {"marker-symbol": "circle-15", "title": "Aloha Surf School Maui"}, "type": "Feature"}, {"geometry": {"coordinates": [-85.75631, 42.879868], "type": "Point"}, "properties": {"marker-symbol": "circle-15", "title": "RiverTown Crossings"}, "type": "Feature"}, {"geometry": {"coordinates": [-68.225105, 44.352579999999996], "type": "Point"}, "properties": {"marker-symbol": "circle-15", "title": "Cadillac Mountain"}, "type": "Feature"}, {"geometry": {"coordinates": [-155.09306, 19.78347], "type": "Point"}, "properties": {"marker-symbol": "circle-15", "title": "Hawaii Plantation Museum"}, "type": "Feature"}, {"geometry": {"coordinates": [-74.00692, 40.71337], "type": "Point"}, "properties": {"marker-symbol": "circle-15", "title": "City Hall Park Visitor Information Center"}, "type": "Feature"}, {"geometry": {"coordinates": [-87.29052, 30.327236], "type": "Point"}, "properties": {"marker-symbol": "circle-15", "title": "Fort Pickens"}, "type": "Feature"}, {"geometry": {"coordinates": [-157.83257, 21.278696], "type": "Point"}, "properties": {"marker-symbol": "circle-15", "title": "Shore Bird Restaurant & Beach Bar"}, "type": "Feature"}, {"geometry": {"coordinates": [-134.5461, 58.417793], "type": "Point"}, "properties": {"marker-symbol": "circle-15", "title": "Mendenhall Glacier"}, "type": "Feature"}, {"geometry": {"coordinates": [-97.30837, 32.961014], "type": "Point"}, "properties": {"marker-symbol": "circle-15", "title": "Cabela's"}, "type": "Feature"}, {"geometry": {"coordinates": [-122.40123, 37.785618], "type": "Point"}, "properties": {"marker-symbol": "circle-15", "title": "San Francisco Museum of Modern Art (SFMOMA)"}, "type": "Feature"}, {"geometry": {"coordinates": [-73.9845, 40.76317], "type": "Point"}, "properties": {"marker-symbol": "circle-15", "title": "Jersey Boys"}, "type": "Feature"}, {"geometry": {"coordinates": [-72.76616999999999, 44.51656], "type": "Point"}, "properties": {"marker-symbol": "circle-15", "title": "Bingham Falls"}, "type": "Feature"}, {"geometry": {"coordinates": [-115.17667, 36.0931], "type": "Point"}, "properties": {"marker-symbol": "circle-15", "title": "Michael Jackson ONE by Cirque du Soleil"}, "type": "Feature"}, {"geometry": {"coordinates": [-122.34361000000001, 47.610355], "type": "Point"}, "properties": {"marker-symbol": "circle-15", "title": "Seattle Free Walking Tours"}, "type": "Feature"}, {"geometry": {"coordinates": [-80.67048, 32.43277], "type": "Point"}, "properties": {"marker-symbol": "circle-15", "title": "Beaufort History Museum"}, "type": "Feature"}, {"geometry": {"coordinates": [-111.90395, 40.769344], "type": "Point"}, "properties": {"marker-symbol": "circle-15", "title": "The Gateway"}, "type": "Feature"}, {"geometry": {"coordinates": [-103.73016, 44.374309999999994], "type": "Point"}, "properties": {"marker-symbol": "circle-15", "title": "Mt Roosevelt Monument"}, "type": "Feature"}, {"geometry": {"coordinates": [-81.163025, 37.958861999999996], "type": "Point"}, "properties": {"marker-symbol": "circle-15", "title": "New River Gorge"}, "type": "Feature"}, {"geometry": {"coordinates": [-74.01386, 40.70523], "type": "Point"}, "properties": {"marker-symbol": "circle-15", "title": "National Museum of the American Indian"}, "type": "Feature"}, {"geometry": {"coordinates": [-80.37879000000001, 25.166513000000002], "type": "Point"}, "properties": {"marker-symbol": "circle-15", "title": "Key Largo Chamber of Commerce and Visitor Center"}, "type": "Feature"}, {"geometry": {"coordinates": [-85.62510999999999, 34.391999999999996], "type": "Point"}, "properties": {"marker-symbol": "circle-15", "title": "Little River Canyon National Preserve"}, "type": "Feature"}, {"geometry": {"coordinates": [-73.98066, 40.76435], "type": "Point"}, "properties": {"marker-symbol": "circle-15", "title": "Wellington Hotel"}, "type": "Feature"}, {"geometry": {"coordinates": [-96.80736, 32.778828000000004], "type": "Point"}, "properties": {"marker-symbol": "circle-15", "title": "Old Red Museum"}, "type": "Feature"}, {"geometry": {"coordinates": [-80.50029, 33.551109999999994], "type": "Point"}, "properties": {"marker-symbol": "circle-15", "title": "Fisheagle Nature Adventures"}, "type": "Feature"}, {"geometry": {"coordinates": [-118.39922, 34.062459999999994], "type": "Point"}, "properties": {"marker-symbol": "circle-15", "title": "Paparazzi Celebrity Tours"}, "type": "Feature"}, {"geometry": {"coordinates": [-119.82055, 39.54762], "type": "Point"}, "properties": {"marker-symbol": "circle-15", "title": "Nevada Historical Society"}, "type": "Feature"}, {"geometry": {"coordinates": [-95.39075, 29.7192], "type": "Point"}, "properties": {"marker-symbol": "circle-15", "title": "Hermann Park"}, "type": "Feature"}, {"geometry": {"coordinates": [-74.00299, 40.70698], "type": "Point"}, "properties": {"marker-symbol": "circle-15", "title": "New York Water Taxi"}, "type": "Feature"}, {"geometry": {"coordinates": [-117.17012, 32.709236], "type": "Point"}, "properties": {"marker-symbol": "circle-15", "title": "Seaport Village"}, "type": "Feature"}, {"geometry": {"coordinates": [-91.34796, 41.669033], "type": "Point"}, "properties": {"marker-symbol": "circle-15", "title": "Herbert Hoover Presidential Library and Museum"}, "type": "Feature"}, {"geometry": {"coordinates": [-73.99096999999999, 40.7503], "type": "Point"}, "properties": {"marker-symbol": "circle-15", "title": "Houdini Museum of New York at Fantasma Magic"}, "type": "Feature"}, {"geometry": {"coordinates": [-98.70118000000001, 46.8884], "type": "Point"}, "properties": {"marker-symbol": "circle-15", "title": "National Buffalo Museum"}, "type": "Feature"}, {"geometry": {"coordinates": [-96.73094, 33.01886], "type": "Point"}, "properties": {"marker-symbol": "circle-15", "title": "Heritage Farmstead Museum"}, "type": "Feature"}, {"geometry": {"coordinates": [-90.0548, 29.94925], "type": "Point"}, "properties": {"marker-symbol": "circle-15", "title": "The Sweat Social"}, "type": "Feature"}, {"geometry": {"coordinates": [-70.20862, 43.623077], "type": "Point"}, "properties": {"marker-symbol": "circle-15", "title": "Portland Head Light"}, "type": "Feature"}, {"geometry": {"coordinates": [-77.022705, 38.88961], "type": "Point"}, "properties": {"marker-symbol": "circle-15", "title": "National Mall"}, "type": "Feature"}, {"geometry": {"coordinates": [-135.31763, 59.4543], "type": "Point"}, "properties": {"marker-symbol": "circle-15", "title": "Klondike Gold Rush National Historical Park"}, "type": "Feature"}, {"geometry": {"coordinates": [-112.95539, 37.255753000000006], "type": "Point"}, "properties": {"marker-symbol": "circle-15", "title": "Zion's Main Canyon"}, "type": "Feature"}, {"geometry": {"coordinates": [-90.1857, 38.624970000000005], "type": "Point"}, "properties": {"marker-symbol": "circle-15", "title": "Gateway Arch"}, "type": "Feature"}, {"geometry": {"coordinates": [-75.9766, 36.85342], "type": "Point"}, "properties": {"marker-symbol": "circle-15", "title": "Naval Aviation Monument"}, "type": "Feature"}, {"geometry": {"coordinates": [-73.96667, 40.781246], "type": "Point"}, "properties": {"marker-symbol": "circle-15", "title": "Central Park"}, "type": "Feature"}, {"geometry": {"coordinates": [-77.02356999999999, 38.897038], "type": "Point"}, "properties": {"marker-symbol": "circle-15", "title": "International Spy Museum"}, "type": "Feature"}, {"geometry": {"coordinates": [-106.4794, 35.190870000000004], "type": "Point"}, "properties": {"marker-symbol": "circle-15", "title": "Sandia Peak Tramway"}, "type": "Feature"}, {"geometry": {"coordinates": [-77.03903000000001, 38.87944], "type": "Point"}, "properties": {"marker-symbol": "circle-15", "title": "George Mason Memorial"}, "type": "Feature"}, {"geometry": {"coordinates": [-73.990974, 40.75875], "type": "Point"}, "properties": {"marker-symbol": "circle-15", "title": "Food On Foot Tours"}, "type": "Feature"}, {"geometry": {"coordinates": [-117.16983, 32.699783000000004], "type": "Point"}, "properties": {"marker-symbol": "circle-15", "title": "Coronado Bridge"}, "type": "Feature"}, {"geometry": {"coordinates": [-73.99231999999999, 40.69489], "type": "Point"}, "properties": {"marker-symbol": "circle-15", "title": "Brooklyn Historical Society"}, "type": "Feature"}, {"geometry": {"coordinates": [-82.35003, 28.188670000000002], "type": "Point"}, "properties": {"marker-symbol": "circle-15", "title": "The shops at Wiregrass"}, "type": "Feature"}, {"geometry": {"coordinates": [-78.795784, 37.379025], "type": "Point"}, "properties": {"marker-symbol": "circle-15", "title": "Appomattox Court House National Historical Park"}, "type": "Feature"}, {"geometry": {"coordinates": [-74.960335, 38.933033], "type": "Point"}, "properties": {"marker-symbol": "circle-15", "title": "Cape May Lighthouse"}, "type": "Feature"}, {"geometry": {"coordinates": [-118.40221000000001, 34.068764], "type": "Point"}, "properties": {"marker-symbol": "circle-15", "title": "Rodeo Drive"}, "type": "Feature"}, {"geometry": {"coordinates": [-110.72458999999999, 43.749886], "type": "Point"}, "properties": {"marker-symbol": "circle-15", "title": "Grand Teton"}, "type": "Feature"}, {"geometry": {"coordinates": [-87.62699, 41.887478], "type": "Point"}, "properties": {"marker-symbol": "circle-15", "title": "Chicago River"}, "type": "Feature"}, {"geometry": {"coordinates": [-82.59246999999999, 28.88285], "type": "Point"}, "properties": {"marker-symbol": "circle-15", "title": "Swimming With The Manatees"}, "type": "Feature"}, {"geometry": {"coordinates": [-117.92076999999999, 33.811240000000005], "type": "Point"}, "properties": {"marker-symbol": "circle-15", "title": "Pirates of the Caribbean"}, "type": "Feature"}, {"geometry": {"coordinates": [-117.81501999999999, 33.78715], "type": "Point"}, "properties": {"marker-symbol": "circle-15", "title": "Panda Mongolian Bbq"}, "type": "Feature"}, {"geometry": {"coordinates": [-74.0138, 40.70448], "type": "Point"}, "properties": {"marker-symbol": "circle-15", "title": "SANDEMANs NEW Europe - New York"}, "type": "Feature"}, {"geometry": {"coordinates": [-117.24048, 32.674416], "type": "Point"}, "properties": {"marker-symbol": "circle-15", "title": "Cabrillo National Monument"}, "type": "Feature"}, {"geometry": {"coordinates": [-76.50801, 40.037815], "type": "Point"}, "properties": {"marker-symbol": "circle-15", "title": "Turkey Hill Experience"}, "type": "Feature"}, {"geometry": {"coordinates": [-100.16026, 40.933], "type": "Point"}, "properties": {"marker-symbol": "circle-15", "title": "Pony Express Station"}, "type": "Feature"}, {"geometry": {"coordinates": [-80.60769, 36.501137], "type": "Point"}, "properties": {"marker-symbol": "circle-15", "title": "The Mount Airy Visitors Center"}, "type": "Feature"}, {"geometry": {"coordinates": [-81.21722, 37.801544], "type": "Point"}, "properties": {"marker-symbol": "circle-15", "title": "Tamarack"}, "type": "Feature"}, {"geometry": {"coordinates": [-121.34211, 43.966293], "type": "Point"}, "properties": {"marker-symbol": "circle-15", "title": "High Desert Museum"}, "type": "Feature"}, {"geometry": {"coordinates": [-90.84137, 32.359455], "type": "Point"}, "properties": {"marker-symbol": "circle-15", "title": "Vicksburg National Monument"}, "type": "Feature"}, {"geometry": {"coordinates": [-78.483795, 38.66406], "type": "Point"}, "properties": {"marker-symbol": "circle-15", "title": "Luray Caverns"}, "type": "Feature"}, {"geometry": {"coordinates": [-97.03523, 28.057528], "type": "Point"}, "properties": {"marker-symbol": "circle-15", "title": "Fulton Mansion State Historic Site"}, "type": "Feature"}, {"geometry": {"coordinates": [-82.54987, 27.403101], "type": "Point"}, "properties": {"marker-symbol": "circle-15", "title": "Sarasota Biplane Adventures"}, "type": "Feature"}, {"geometry": {"coordinates": [-77.0447, 38.8155], "type": "Point"}, "properties": {"marker-symbol": "circle-15", "title": "Fort Hunt Park"}, "type": "Feature"}, {"geometry": {"coordinates": [-71.070274, 42.354324], "type": "Point"}, "properties": {"marker-symbol": "circle-15", "title": "Boston Public Garden"}, "type": "Feature"}, {"geometry": {"coordinates": [-122.41917, 37.779346000000004], "type": "Point"}, "properties": {"marker-symbol": "circle-15", "title": "San Francisco City Hall"}, "type": "Feature"}, {"geometry": {"coordinates": [-98.48656, 29.425781], "type": "Point"}, "properties": {"marker-symbol": "circle-15", "title": "Alamo Plaza"}, "type": "Feature"}, {"geometry": {"coordinates": [-105.56877, 36.402237], "type": "Point"}, "properties": {"marker-symbol": "circle-15", "title": "Heritage Inspirations"}, "type": "Feature"}, {"geometry": {"coordinates": [-82.55532, 35.595238], "type": "Point"}, "properties": {"marker-symbol": "circle-15", "title": "Asheville by Foot - Walking Tours"}, "type": "Feature"}, {"geometry": {"coordinates": [-76.33003000000001, 40.04241], "type": "Point"}, "properties": {"marker-symbol": "circle-15", "title": "Wheatland"}, "type": "Feature"}, {"geometry": {"coordinates": [-122.60061999999999, 45.53183], "type": "Point"}, "properties": {"marker-symbol": "circle-15", "title": "Outdoor Viewfinder"}, "type": "Feature"}, {"geometry": {"coordinates": [-115.23283, 36.152332], "type": "Point"}, "properties": {"marker-symbol": "circle-15", "title": "Magical Forest"}, "type": "Feature"}, {"geometry": {"coordinates": [-77.00617, 38.897529999999996], "type": "Point"}, "properties": {"marker-symbol": "circle-15", "title": "Union Station"}, "type": "Feature"}, {"geometry": {"coordinates": [-159.35435, 22.062323000000003], "type": "Point"}, "properties": {"marker-symbol": "circle-15", "title": "Sleeping Giant Trail"}, "type": "Feature"}, {"geometry": {"coordinates": [-83.71019, 34.75764], "type": "Point"}, "properties": {"marker-symbol": "circle-15", "title": "Anna Ruby Falls"}, "type": "Feature"}, {"geometry": {"coordinates": [-122.41017, 37.800309999999996], "type": "Point"}, "properties": {"marker-symbol": "circle-15", "title": "Washington Square"}, "type": "Feature"}, {"geometry": {"coordinates": [-82.6086, 35.49723], "type": "Point"}, "properties": {"marker-symbol": "circle-15", "title": "The North Carolina Arboretum"}, "type": "Feature"}, {"geometry": {"coordinates": [-73.97885, 40.76684], "type": "Point"}, "properties": {"marker-symbol": "circle-15", "title": "NYC Horse Carriage Rides"}, "type": "Feature"}, {"geometry": {"coordinates": [-122.4815, 37.827656], "type": "Point"}, "properties": {"marker-symbol": "circle-15", "title": "Battery Spencer"}, "type": "Feature"}, {"geometry": {"coordinates": [0.0, 0.0], "type": "Point"}, "properties": {"marker-symbol": "circle-15", "title": "Black Canyon Visitor Center"}, "type": "Feature"}, {"geometry": {"coordinates": [-73.91797, 41.09329], "type": "Point"}, "properties": {"marker-symbol": "circle-15", "title": "Edward Hopper House Art Center"}, "type": "Feature"}, {"geometry": {"coordinates": [-122.25018, 37.509434000000006], "type": "Point"}, "properties": {"marker-symbol": "circle-15", "title": "Bay Aerial San Francisco Helicopter Tours"}, "type": "Feature"}, {"geometry": {"coordinates": [-159.40329, 22.218025], "type": "Point"}, "properties": {"marker-symbol": "circle-15", "title": "Kileaua Point National Wildife Refuge Lighthouse"}, "type": "Feature"}, {"geometry": {"coordinates": [0.0, 0.0], "type": "Point"}, "properties": {"marker-symbol": "circle-15", "title": "Popeye Museum"}, "type": "Feature"}, {"geometry": {"coordinates": [-76.63320999999999, 39.291245], "type": "Point"}, "properties": {"marker-symbol": "circle-15", "title": "Edgar Allan Poe House and Museum"}, "type": "Feature"}, {"geometry": {"coordinates": [0.0, 0.0], "type": "Point"}, "properties": {"marker-symbol": "circle-15", "title": "Ozark National Scenic Riverways"}, "type": "Feature"}, {"geometry": {"coordinates": [-118.33686999999999, 33.33051], "type": "Point"}, "properties": {"marker-symbol": "circle-15", "title": "Hermit Gulch Trail Loop"}, "type": "Feature"}, {"geometry": {"coordinates": [-72.383224, 43.473156], "type": "Point"}, "properties": {"marker-symbol": "circle-15", "title": "Cornish-Windsor Covered Bridge"}, "type": "Feature"}, {"geometry": {"coordinates": [-115.17402, 36.094592999999996], "type": "Point"}, "properties": {"marker-symbol": "circle-15", "title": "Jabbawockeez"}, "type": "Feature"}, {"geometry": {"coordinates": [-115.17435, 36.102385999999996], "type": "Point"}, "properties": {"marker-symbol": "circle-15", "title": "The Big Apple Coaster & Arcade"}, "type": "Feature"}, {"geometry": {"coordinates": [-92.848045, 44.725227000000004], "type": "Point"}, "properties": {"marker-symbol": "circle-15", "title": "Vermillion Falls"}, "type": "Feature"}, {"geometry": {"coordinates": [-77.0228, 38.888046], "type": "Point"}, "properties": {"marker-symbol": "circle-15", "title": "Hirshhorn Museum and Sculpture Garden"}, "type": "Feature"}, {"geometry": {"coordinates": [-84.09116999999999, 39.407913], "type": "Point"}, "properties": {"marker-symbol": "circle-15", "title": "Fort Ancient State Memorial"}, "type": "Feature"}, {"geometry": {"coordinates": [-117.15227, 32.731667], "type": "Point"}, "properties": {"marker-symbol": "circle-15", "title": "California Tower"}, "type": "Feature"}, {"geometry": {"coordinates": [-92.52754, 38.07721], "type": "Point"}, "properties": {"marker-symbol": "circle-15", "title": "Swinging Bridge"}, "type": "Feature"}, {"geometry": {"coordinates": [-106.82581, 40.472409999999996], "type": "Point"}, "properties": {"marker-symbol": "circle-15", "title": "Mountain Sports Kayak School"}, "type": "Feature"}, {"geometry": {"coordinates": [-74.01426, 40.702953], "type": "Point"}, "properties": {"marker-symbol": "circle-15", "title": "Hudson River Greenway"}, "type": "Feature"}, {"geometry": {"coordinates": [-90.04279, 37.97931], "type": "Point"}, "properties": {"marker-symbol": "circle-15", "title": "Ste. Genevieve Welcome Center"}, "type": "Feature"}, {"geometry": {"coordinates": [-77.43375, 37.538677], "type": "Point"}, "properties": {"marker-symbol": "circle-15", "title": "Virginia Capitol Building"}, "type": "Feature"}, {"geometry": {"coordinates": [-71.30927, 41.477795], "type": "Point"}, "properties": {"marker-symbol": "circle-15", "title": "The Elms"}, "type": "Feature"}, {"geometry": {"coordinates": [-134.38733, 58.2965], "type": "Point"}, "properties": {"marker-symbol": "circle-15", "title": "Goldbelt Mount Roberts Tramway"}, "type": "Feature"}, {"geometry": {"coordinates": [-68.782875, 44.80815], "type": "Point"}, "properties": {"marker-symbol": "circle-15", "title": "SK Tours Of Maine, LLC"}, "type": "Feature"}, {"geometry": {"coordinates": [-73.980446, 40.573235], "type": "Point"}, "properties": {"marker-symbol": "circle-15", "title": "Coney Island USA"}, "type": "Feature"}, {"geometry": {"coordinates": [-87.609146, 41.892056], "type": "Point"}, "properties": {"marker-symbol": "circle-15", "title": "Shoreline Sightseeing"}, "type": "Feature"}, {"geometry": {"coordinates": [-90.04899999999999, 35.155], "type": "Point"}, "properties": {"marker-symbol": "circle-15", "title": "Main Street Trolley"}, "type": "Feature"}, {"geometry": {"coordinates": [-74.440216, 40.13707], "type": "Point"}, "properties": {"marker-symbol": "circle-15", "title": "Six Flags Great Adventure"}, "type": "Feature"}, {"geometry": {"coordinates": [-81.45951, 28.411872999999996], "type": "Point"}, "properties": {"marker-symbol": "circle-15", "title": "SeaWorld Orlando"}, "type": "Feature"}, {"geometry": {"coordinates": [-79.99814, 42.149475], "type": "Point"}, "properties": {"marker-symbol": "circle-15", "title": "Imperial Palace"}, "type": "Feature"}, {"geometry": {"coordinates": [-94.42894, 35.392124], "type": "Point"}, "properties": {"marker-symbol": "circle-15", "title": "Miss Laura's Social Club"}, "type": "Feature"}, {"geometry": {"coordinates": [-100.02233000000001, 37.754333], "type": "Point"}, "properties": {"marker-symbol": "circle-15", "title": "Boot Hill Museum"}, "type": "Feature"}, {"geometry": {"coordinates": [-87.685, 34.672470000000004], "type": "Point"}, "properties": {"marker-symbol": "circle-15", "title": "Spring Park"}, "type": "Feature"}, {"geometry": {"coordinates": [-75.15937, 39.953632], "type": "Point"}, "properties": {"marker-symbol": "circle-15", "title": "Reading Terminal Market"}, "type": "Feature"}, {"geometry": {"coordinates": [-115.17366000000001, 36.107162], "type": "Point"}, "properties": {"marker-symbol": "circle-15", "title": "The Buffet at Aria"}, "type": "Feature"}, {"geometry": {"coordinates": [-74.07777, 40.64434], "type": "Point"}, "properties": {"marker-symbol": "circle-15", "title": "Staten Island Museum"}, "type": "Feature"}, {"geometry": {"coordinates": [-157.00525, 21.176952], "type": "Point"}, "properties": {"marker-symbol": "circle-15", "title": "Kalaupapa Overlook"}, "type": "Feature"}, {"geometry": {"coordinates": [-79.54401, 37.627506], "type": "Point"}, "properties": {"marker-symbol": "circle-15", "title": "The Natural Bridge of Virginia"}, "type": "Feature"}, {"geometry": {"coordinates": [-81.69293, 41.49948], "type": "Point"}, "properties": {"marker-symbol": "circle-15", "title": "Soldiers' and Sailors' Monument"}, "type": "Feature"}, {"geometry": {"coordinates": [-71.056564, 42.372868], "type": "Point"}, "properties": {"marker-symbol": "circle-15", "title": "USS Constitution"}, "type": "Feature"}, {"geometry": {"coordinates": [-83.540146, 35.864014000000005], "type": "Point"}, "properties": {"marker-symbol": "circle-15", "title": "Hike The Smokys"}, "type": "Feature"}, {"geometry": {"coordinates": [-88.921165, 38.328365000000005], "type": "Point"}, "properties": {"marker-symbol": "circle-15", "title": "Cedarhurst Center for the Arts"}, "type": "Feature"}, {"geometry": {"coordinates": [-157.85208, 21.30423], "type": "Point"}, "properties": {"marker-symbol": "circle-15", "title": "Honolulu's Police Department Museum"}, "type": "Feature"}, {"geometry": {"coordinates": [-111.939644, 33.744797], "type": "Point"}, "properties": {"marker-symbol": "circle-15", "title": "Way out West, Off Road Expeditions"}, "type": "Feature"}, {"geometry": {"coordinates": [-110.61247, 44.73236], "type": "Point"}, "properties": {"marker-symbol": "circle-15", "title": "Yellowstone River"}, "type": "Feature"}, {"geometry": {"coordinates": [-77.07078, 38.930595000000004], "type": "Point"}, "properties": {"marker-symbol": "circle-15", "title": "Washington National Cathedral"}, "type": "Feature"}, {"geometry": {"coordinates": [-73.96342, 40.77942], "type": "Point"}, "properties": {"marker-symbol": "circle-15", "title": "In Food We Trust"}, "type": "Feature"}, {"geometry": {"coordinates": [-122.46866599999998, 37.771465], "type": "Point"}, "properties": {"marker-symbol": "circle-15", "title": "Museum Hack SF"}, "type": "Feature"}, {"geometry": {"coordinates": [-74.11714, 40.729465000000005], "type": "Point"}, "properties": {"marker-symbol": "circle-15", "title": "FlyNYON"}, "type": "Feature"}, {"geometry": {"coordinates": [-122.35113, 47.61395], "type": "Point"}, "properties": {"marker-symbol": "circle-15", "title": "Seattle Bicycle Tours"}, "type": "Feature"}, {"geometry": {"coordinates": [-158.1973, 21.448309], "type": "Point"}, "properties": {"marker-symbol": "circle-15", "title": "Hawaii Nautical"}, "type": "Feature"}, {"geometry": {"coordinates": [-156.5117, 20.7918], "type": "Point"}, "properties": {"marker-symbol": "circle-15", "title": "Malolo Molokini Snorkeling Tour"}, "type": "Feature"}, {"geometry": {"coordinates": [-112.02757, 34.7474], "type": "Point"}, "properties": {"marker-symbol": "circle-15", "title": "Pawz on Main"}, "type": "Feature"}, {"geometry": {"coordinates": [-87.53625500000001, 38.672973999999996], "type": "Point"}, "properties": {"marker-symbol": "circle-15", "title": "Indiana Military Museum"}, "type": "Feature"}, {"geometry": {"coordinates": [-82.7852, 27.785902], "type": "Point"}, "properties": {"marker-symbol": "circle-15", "title": "Madeira Beach"}, "type": "Feature"}, {"geometry": {"coordinates": [-69.97323, 41.83034], "type": "Point"}, "properties": {"marker-symbol": "circle-15", "title": "Eastham Windmill"}, "type": "Feature"}, {"geometry": {"coordinates": [-90.03783, 35.144897], "type": "Point"}, "properties": {"marker-symbol": "circle-15", "title": "Woodruff-Fontaine House"}, "type": "Feature"}, {"geometry": {"coordinates": [-73.99986, 40.745670000000004], "type": "Point"}, "properties": {"marker-symbol": "circle-15", "title": "Leo House"}, "type": "Feature"}, {"geometry": {"coordinates": [-95.38665999999999, 29.720785], "type": "Point"}, "properties": {"marker-symbol": "circle-15", "title": "McGovern Centennial Gardens"}, "type": "Feature"}, {"geometry": {"coordinates": [-71.063896, 42.35546], "type": "Point"}, "properties": {"marker-symbol": "circle-15", "title": "Freedom Trail"}, "type": "Feature"}, {"geometry": {"coordinates": [-74.00482, 40.731426], "type": "Point"}, "properties": {"marker-symbol": "circle-15", "title": "Best Tours"}, "type": "Feature"}, {"geometry": {"coordinates": [-157.81732, 21.26609], "type": "Point"}, "properties": {"marker-symbol": "circle-15", "title": "Kapiolani Park"}, "type": "Feature"}, {"geometry": {"coordinates": [-72.92871, 41.30831], "type": "Point"}, "properties": {"marker-symbol": "circle-15", "title": "Yale University"}, "type": "Feature"}, {"geometry": {"coordinates": [-96.69979000000001, 40.80785], "type": "Point"}, "properties": {"marker-symbol": "circle-15", "title": "Nebraska State Capitol"}, "type": "Feature"}, {"geometry": {"coordinates": [-69.972786, 41.83712], "type": "Point"}, "properties": {"marker-symbol": "circle-15", "title": "Salt Pond Visitor Center"}, "type": "Feature"}, {"geometry": {"coordinates": [-74.06296999999999, 40.61531], "type": "Point"}, "properties": {"marker-symbol": "circle-15", "title": "Alice Austen House Museum & Garden"}, "type": "Feature"}, {"geometry": {"coordinates": [-119.70343999999999, 34.422962], "type": "Point"}, "properties": {"marker-symbol": "circle-15", "title": "State Street"}, "type": "Feature"}, {"geometry": {"coordinates": [-157.83876, 21.286116], "type": "Point"}, "properties": {"marker-symbol": "circle-15", "title": "Try Scuba Diving - Honolulu"}, "type": "Feature"}, {"geometry": {"coordinates": [-86.775826, 36.160915], "type": "Point"}, "properties": {"marker-symbol": "circle-15", "title": "The Johnny Cash Museum"}, "type": "Feature"}, {"geometry": {"coordinates": [-73.96293, 40.779167], "type": "Point"}, "properties": {"marker-symbol": "circle-15", "title": "Curious Minds Tours"}, "type": "Feature"}, {"geometry": {"coordinates": [-117.22981999999999, 38.068709999999996], "type": "Point"}, "properties": {"marker-symbol": "circle-15", "title": "Tonopah Historic Mining Park"}, "type": "Feature"}, {"geometry": {"coordinates": [-90.12522, 29.934085999999997], "type": "Point"}, "properties": {"marker-symbol": "circle-15", "title": "Audubon Park"}, "type": "Feature"}, {"geometry": {"coordinates": [-117.91728, 33.808341999999996], "type": "Point"}, "properties": {"marker-symbol": "circle-15", "title": "Monsters, Inc. Mike & Sulley to the Rescue!"}, "type": "Feature"}, {"geometry": {"coordinates": [-77.01693, 38.888405], "type": "Point"}, "properties": {"marker-symbol": "circle-15", "title": "National Museum of the American Indian"}, "type": "Feature"}, {"geometry": {"coordinates": [-83.21148000000001, 39.89956], "type": "Point"}, "properties": {"marker-symbol": "circle-15", "title": "Battelle Darby Creek"}, "type": "Feature"}, {"geometry": {"coordinates": [-74.025085, 40.752293], "type": "Point"}, "properties": {"marker-symbol": "circle-15", "title": "Hoboken Historical Museum"}, "type": "Feature"}, {"geometry": {"coordinates": [-83.17664, 42.32224], "type": "Point"}, "properties": {"marker-symbol": "circle-15", "title": "Arab American National Museum"}, "type": "Feature"}, {"geometry": {"coordinates": [-107.010345, 37.266822999999995], "type": "Point"}, "properties": {"marker-symbol": "circle-15", "title": "San Juan River Walk"}, "type": "Feature"}, {"geometry": {"coordinates": [-117.91415400000001, 33.806057], "type": "Point"}, "properties": {"marker-symbol": "circle-15", "title": "Anaheim Plaza Hotel and Suites"}, "type": "Feature"}, {"geometry": {"coordinates": [-73.99788000000001, 40.724037], "type": "Point"}, "properties": {"marker-symbol": "circle-15", "title": "SoHo"}, "type": "Feature"}, {"geometry": {"coordinates": [-71.41503, 41.830414000000005], "type": "Point"}, "properties": {"marker-symbol": "circle-15", "title": "State House"}, "type": "Feature"}, {"geometry": {"coordinates": [-75.15023000000001, 39.949535], "type": "Point"}, "properties": {"marker-symbol": "circle-15", "title": "Liberty Bell Center"}, "type": "Feature"}, {"geometry": {"coordinates": [-94.58125, 39.08252], "type": "Point"}, "properties": {"marker-symbol": "circle-15", "title": "SEA LIFE Kansas City"}, "type": "Feature"}, {"geometry": {"coordinates": [-81.84478, 28.533540000000002], "type": "Point"}, "properties": {"marker-symbol": "circle-15", "title": "Quest Air Hang Gliding"}, "type": "Feature"}, {"geometry": {"coordinates": [-80.6059, 24.946566], "type": "Point"}, "properties": {"marker-symbol": "circle-15", "title": "Theater of the Sea"}, "type": "Feature"}, {"geometry": {"coordinates": [-71.953156, 41.3735], "type": "Point"}, "properties": {"marker-symbol": "circle-15", "title": "Mystic Aquarium"}, "type": "Feature"}, {"geometry": {"coordinates": [0.0, 0.0], "type": "Point"}, "properties": {"marker-symbol": "circle-15", "title": "E.T.C. Events Tailor Made and Customized"}, "type": "Feature"}, {"geometry": {"coordinates": [-75.16348, 39.95355], "type": "Point"}, "properties": {"marker-symbol": "circle-15", "title": "Masonic Temple"}, "type": "Feature"}, {"geometry": {"coordinates": [-89.47665, 37.441418], "type": "Point"}, "properties": {"marker-symbol": "circle-15", "title": "Trail of Tears State Park"}, "type": "Feature"}, {"geometry": {"coordinates": [-118.19682, 33.762096], "type": "Point"}, "properties": {"marker-symbol": "circle-15", "title": "Aquarium of the Pacific"}, "type": "Feature"}, {"geometry": {"coordinates": [-81.63541, 38.354122], "type": "Point"}, "properties": {"marker-symbol": "circle-15", "title": "Embassy Suites by Hilton Charleston"}, "type": "Feature"}, {"geometry": {"coordinates": [-84.37319000000001, 33.748226], "type": "Point"}, "properties": {"marker-symbol": "circle-15", "title": "Oakland Cemetery"}, "type": "Feature"}, {"geometry": {"coordinates": [-71.04559, 42.102534999999996], "type": "Point"}, "properties": {"marker-symbol": "circle-15", "title": "Fuller Craft Museum"}, "type": "Feature"}, {"geometry": {"coordinates": [-103.7438, 35.170593], "type": "Point"}, "properties": {"marker-symbol": "circle-15", "title": "Route 66 Monument"}, "type": "Feature"}, {"geometry": {"coordinates": [-87.10991, 37.7758], "type": "Point"}, "properties": {"marker-symbol": "circle-15", "title": "International Bluegrass Music Museum"}, "type": "Feature"}, {"geometry": {"coordinates": [-124.04528, 44.622634999999995], "type": "Point"}, "properties": {"marker-symbol": "circle-15", "title": "Hatfield Marine Science Center"}, "type": "Feature"}, {"geometry": {"coordinates": [-104.71378, 44.58915], "type": "Point"}, "properties": {"marker-symbol": "circle-15", "title": "Devils Tower National Monument"}, "type": "Feature"}, {"geometry": {"coordinates": [-80.26833, 25.910332], "type": "Point"}, "properties": {"marker-symbol": "circle-15", "title": "Miami Helicopter Inc"}, "type": "Feature"}, {"geometry": {"coordinates": [0.0, 0.0], "type": "Point"}, "properties": {"marker-symbol": "circle-15", "title": "Music of Denali Dinner Theater"}, "type": "Feature"}, {"geometry": {"coordinates": [-74.46007, 39.49517], "type": "Point"}, "properties": {"marker-symbol": "circle-15", "title": "Historic Smithville and Village Greene"}, "type": "Feature"}, {"geometry": {"coordinates": [-122.48064, 48.7509], "type": "Point"}, "properties": {"marker-symbol": "circle-15", "title": "Mindport"}, "type": "Feature"}, {"geometry": {"coordinates": [-122.40762, 37.78465], "type": "Point"}, "properties": {"marker-symbol": "circle-15", "title": "Powell and Market Cable Car Turnaround"}, "type": "Feature"}, {"geometry": {"coordinates": [-80.74410999999999, 32.243109999999994], "type": "Point"}, "properties": {"marker-symbol": "circle-15", "title": "Fort Mitchel"}, "type": "Feature"}, {"geometry": {"coordinates": [-85.74070999999999, 37.57394], "type": "Point"}, "properties": {"marker-symbol": "circle-15", "title": "The Lincoln Museum"}, "type": "Feature"}, {"geometry": {"coordinates": [-74.05905, 41.471470000000004], "type": "Point"}, "properties": {"marker-symbol": "circle-15", "title": "National Purple Heart Hall Of Honor"}, "type": "Feature"}, {"geometry": {"coordinates": [-89.22308000000001, 42.9166], "type": "Point"}, "properties": {"marker-symbol": "circle-15", "title": "Livsreise"}, "type": "Feature"}, {"geometry": {"coordinates": [-95.207695, 47.23982], "type": "Point"}, "properties": {"marker-symbol": "circle-15", "title": "Mississippi Headwaters"}, "type": "Feature"}, {"geometry": {"coordinates": [-115.17523, 36.105125], "type": "Point"}, "properties": {"marker-symbol": "circle-15", "title": "Minus 5 Ice Bar - Monte Carlo"}, "type": "Feature"}, {"geometry": {"coordinates": [-79.03917, 43.140556], "type": "Point"}, "properties": {"marker-symbol": "circle-15", "title": "Robert Moses Niagara Hydroelectric Power Station"}, "type": "Feature"}, {"geometry": {"coordinates": [-115.16898, 36.124676], "type": "Point"}, "properties": {"marker-symbol": "circle-15", "title": "Palazzo Resort Casino"}, "type": "Feature"}, {"geometry": {"coordinates": [-157.85585, 21.29682], "type": "Point"}, "properties": {"marker-symbol": "circle-15", "title": "On The Rocks Adventures"}, "type": "Feature"}, {"geometry": {"coordinates": [-80.86174, 32.233284000000005], "type": "Point"}, "properties": {"marker-symbol": "circle-15", "title": "Heyward House"}, "type": "Feature"}, {"geometry": {"coordinates": [-75.600655, 39.806872999999996], "type": "Point"}, "properties": {"marker-symbol": "circle-15", "title": "Winterthur Museum, Garden & Library"}, "type": "Feature"}, {"geometry": {"coordinates": [-101.69082, 34.97999], "type": "Point"}, "properties": {"marker-symbol": "circle-15", "title": "Palo Duro Canyon State Park"}, "type": "Feature"}, {"geometry": {"coordinates": [-122.17006, 37.427757], "type": "Point"}, "properties": {"marker-symbol": "circle-15", "title": "Stanford University"}, "type": "Feature"}, {"geometry": {"coordinates": [-117.81856, 33.889465], "type": "Point"}, "properties": {"marker-symbol": "circle-15", "title": "Richard Nixon Presidential Library and Museum"}, "type": "Feature"}, {"geometry": {"coordinates": [-73.98638000000001, 40.73611], "type": "Point"}, "properties": {"marker-symbol": "circle-15", "title": "Outside In Walking Tours"}, "type": "Feature"}, {"geometry": {"coordinates": [-109.29383, 33.0474], "type": "Point"}, "properties": {"marker-symbol": "circle-15", "title": "Coronado Trail"}, "type": "Feature"}, {"geometry": {"coordinates": [-79.06219499999999, 43.093475], "type": "Point"}, "properties": {"marker-symbol": "circle-15", "title": "Niagara Falls"}, "type": "Feature"}, {"geometry": {"coordinates": [-82.21015, 28.60571], "type": "Point"}, "properties": {"marker-symbol": "circle-15", "title": "Florida National Cemetery"}, "type": "Feature"}, {"geometry": {"coordinates": [-97.4806, 26.0214], "type": "Point"}, "properties": {"marker-symbol": "circle-15", "title": "Palo Alto Battlefield National Historic Site"}, "type": "Feature"}, {"geometry": {"coordinates": [-71.587654, 43.731144], "type": "Point"}, "properties": {"marker-symbol": "circle-15", "title": "Experience Squam"}, "type": "Feature"}, {"geometry": {"coordinates": [-100.49202, 31.45335], "type": "Point"}, "properties": {"marker-symbol": "circle-15", "title": "San Angelo State Park"}, "type": "Feature"}, {"geometry": {"coordinates": [-83.29956999999999, 42.702427], "type": "Point"}, "properties": {"marker-symbol": "circle-15", "title": "Great Lakes Crossing Outlets"}, "type": "Feature"}, {"geometry": {"coordinates": [-77.03929000000001, 38.89908], "type": "Point"}, "properties": {"marker-symbol": "circle-15", "title": "Renwick Gallery"}, "type": "Feature"}, {"geometry": {"coordinates": [-90.65908, 42.495613], "type": "Point"}, "properties": {"marker-symbol": "circle-15", "title": "National Mississippi River Museum & Aquarium"}, "type": "Feature"}, {"geometry": {"coordinates": [-83.81033000000001, 34.870438], "type": "Point"}, "properties": {"marker-symbol": "circle-15", "title": "Brasstown Bald Mountain"}, "type": "Feature"}, {"geometry": {"coordinates": [-115.16686000000001, 36.12647], "type": "Point"}, "properties": {"marker-symbol": "circle-15", "title": "Wynn Las Vegas Casino"}, "type": "Feature"}, {"geometry": {"coordinates": [-82.95727, 35.796023999999996], "type": "Point"}, "properties": {"marker-symbol": "circle-15", "title": "Max Patch"}, "type": "Feature"}, {"geometry": {"coordinates": [-111.82287, 40.76393], "type": "Point"}, "properties": {"marker-symbol": "circle-15", "title": "Natural History Museum of Utah"}, "type": "Feature"}, {"geometry": {"coordinates": [-112.43633, 34.5812], "type": "Point"}, "properties": {"marker-symbol": "circle-15", "title": "A Haunting Experience Tours"}, "type": "Feature"}, {"geometry": {"coordinates": [-75.59782, 39.909164000000004], "type": "Point"}, "properties": {"marker-symbol": "circle-15", "title": "Sandy Hollow"}, "type": "Feature"}, {"geometry": {"coordinates": [-121.81358, 46.933777], "type": "Point"}, "properties": {"marker-symbol": "circle-15", "title": "Sunrise Visitor Center"}, "type": "Feature"}, {"geometry": {"coordinates": [-105.00747, 39.748646], "type": "Point"}, "properties": {"marker-symbol": "circle-15", "title": "Pepsi Center"}, "type": "Feature"}, {"geometry": {"coordinates": [-72.4406, 41.083453999999996], "type": "Point"}, "properties": {"marker-symbol": "circle-15", "title": "Horton Point Lighthouse and Nautical Museum"}, "type": "Feature"}, {"geometry": {"coordinates": [-111.51241999999999, 36.87931], "type": "Point"}, "properties": {"marker-symbol": "circle-15", "title": "Horseshoe Bend"}, "type": "Feature"}, {"geometry": {"coordinates": [-90.27960999999999, 38.51225], "type": "Point"}, "properties": {"marker-symbol": "circle-15", "title": "Jefferson Barracks Historic Park"}, "type": "Feature"}, {"geometry": {"coordinates": [-77.92165, 33.96265], "type": "Point"}, "properties": {"marker-symbol": "circle-15", "title": "Fort Fisher State Recreation Area"}, "type": "Feature"}, {"geometry": {"coordinates": [-81.79018, 24.547132], "type": "Point"}, "properties": {"marker-symbol": "circle-15", "title": "Sand-Isle"}, "type": "Feature"}, {"geometry": {"coordinates": [-79.99343, 40.45929], "type": "Point"}, "properties": {"marker-symbol": "circle-15", "title": "Wigle Whiskey Garden and Barrel House"}, "type": "Feature"}, {"geometry": {"coordinates": [-76.51061, 37.23944], "type": "Point"}, "properties": {"marker-symbol": "circle-15", "title": "The Watermen's Museum"}, "type": "Feature"}, {"geometry": {"coordinates": [-112.11365500000001, 36.05243], "type": "Point"}, "properties": {"marker-symbol": "circle-15", "title": "Trailer Village RV Park"}, "type": "Feature"}, {"geometry": {"coordinates": [-73.98628000000001, 40.761379999999996], "type": "Point"}, "properties": {"marker-symbol": "circle-15", "title": "New York Pedicab Services"}, "type": "Feature"}, {"geometry": {"coordinates": [-81.53669000000001, 28.38604], "type": "Point"}, "properties": {"marker-symbol": "circle-15", "title": "Riverside Mill Foodcourt"}, "type": "Feature"}, {"geometry": {"coordinates": [0.0, 0.0], "type": "Point"}, "properties": {"marker-symbol": "circle-15", "title": "The Plains School"}, "type": "Feature"}, {"geometry": {"coordinates": [-82.47408, 36.29405], "type": "Point"}, "properties": {"marker-symbol": "circle-15", "title": "Chester Inn Museum"}, "type": "Feature"}, {"geometry": {"coordinates": [-97.35589, 32.80571], "type": "Point"}, "properties": {"marker-symbol": "circle-15", "title": "Fort Worth Aviation Museum"}, "type": "Feature"}, {"geometry": {"coordinates": [-115.94123, 33.526996999999994], "type": "Point"}, "properties": {"marker-symbol": "circle-15", "title": "International Banana Museum"}, "type": "Feature"}, {"geometry": {"coordinates": [-158.05423000000002, 21.636004999999997], "type": "Point"}, "properties": {"marker-symbol": "circle-15", "title": "Waimea Valley"}, "type": "Feature"}, {"geometry": {"coordinates": [-74.00412, 40.712852000000005], "type": "Point"}, "properties": {"marker-symbol": "circle-15", "title": "Big Apple Greeter"}, "type": "Feature"}, {"geometry": {"coordinates": [-96.08953000000001, 33.125927000000004], "type": "Point"}, "properties": {"marker-symbol": "circle-15", "title": "Audie Murphy/American Cotton Museum"}, "type": "Feature"}, {"geometry": {"coordinates": [-156.68005, 20.875551], "type": "Point"}, "properties": {"marker-symbol": "circle-15", "title": "Courthouse"}, "type": "Feature"}, {"geometry": {"coordinates": [-80.18512, 32.617996000000005], "type": "Point"}, "properties": {"marker-symbol": "circle-15", "title": "Charleston Tea Plantation"}, "type": "Feature"}, {"geometry": {"coordinates": [-93.31269, 36.59373], "type": "Point"}, "properties": {"marker-symbol": "circle-15", "title": "Dewey Short Visitors Center"}, "type": "Feature"}, {"geometry": {"coordinates": [-116.76073500000001, 36.907024], "type": "Point"}, "properties": {"marker-symbol": "circle-15", "title": "Beatty Museum & Historical Society"}, "type": "Feature"}, {"geometry": {"coordinates": [-71.09778, 42.346226], "type": "Point"}, "properties": {"marker-symbol": "circle-15", "title": "Fenway Park"}, "type": "Feature"}, {"geometry": {"coordinates": [-80.13037, 25.780251999999997], "type": "Point"}, "properties": {"marker-symbol": "circle-15", "title": "Art Deco Historic District"}, "type": "Feature"}, {"geometry": {"coordinates": [-70.59646, 43.24391], "type": "Point"}, "properties": {"marker-symbol": "circle-15", "title": "Ogunquit Memorial Library"}, "type": "Feature"}, {"geometry": {"coordinates": [-118.40321999999999, 34.07101], "type": "Point"}, "properties": {"marker-symbol": "circle-15", "title": "Paley Center for Media"}, "type": "Feature"}, {"geometry": {"coordinates": [-81.468925, 28.443295000000003], "type": "Point"}, "properties": {"marker-symbol": "circle-15", "title": "I-Drive 360"}, "type": "Feature"}, {"geometry": {"coordinates": [-156.44505, 20.708748], "type": "Point"}, "properties": {"marker-symbol": "circle-15", "title": "Redline Rafting Co."}, "type": "Feature"}, {"geometry": {"coordinates": [-97.11851, 31.555727], "type": "Point"}, "properties": {"marker-symbol": "circle-15", "title": "Texas Ranger Hall of Fame and Museum"}, "type": "Feature"}, {"geometry": {"coordinates": [-122.41025, 37.808987], "type": "Point"}, "properties": {"marker-symbol": "circle-15", "title": "Wipeout Bar & Grill"}, "type": "Feature"}, {"geometry": {"coordinates": [-96.93121, 33.341390000000004], "type": "Point"}, "properties": {"marker-symbol": "circle-15", "title": "Texas Tulips"}, "type": "Feature"}, {"geometry": {"coordinates": [-119.22786, 34.16489], "type": "Point"}, "properties": {"marker-symbol": "circle-15", "title": "Channel Islands Maritime Museum"}, "type": "Feature"}, {"geometry": {"coordinates": [-84.53971999999999, 39.14363], "type": "Point"}, "properties": {"marker-symbol": "circle-15", "title": "American Sign Museum"}, "type": "Feature"}, {"geometry": {"coordinates": [-77.22585, 39.811355999999996], "type": "Point"}, "properties": {"marker-symbol": "circle-15", "title": "Gettysburg Museum & Visitor Center"}, "type": "Feature"}, {"geometry": {"coordinates": [-78.639114, 35.780567], "type": "Point"}, "properties": {"marker-symbol": "circle-15", "title": "North Carolina State Capitol"}, "type": "Feature"}, {"geometry": {"coordinates": [-73.745674, 43.424793], "type": "Point"}, "properties": {"marker-symbol": "circle-15", "title": "Prospect Mountain"}, "type": "Feature"}, {"geometry": {"coordinates": [-156.51064, 20.792156], "type": "Point"}, "properties": {"marker-symbol": "circle-15", "title": "Pride of Maui"}, "type": "Feature"}, {"geometry": {"coordinates": [-87.66623, 30.266264000000003], "type": "Point"}, "properties": {"marker-symbol": "circle-15", "title": "Gulf State Park"}, "type": "Feature"}, {"geometry": {"coordinates": [-117.17508000000001, 32.713852], "type": "Point"}, "properties": {"marker-symbol": "circle-15", "title": "USS Midway Museum"}, "type": "Feature"}, {"geometry": {"coordinates": [-122.20355, 47.615623], "type": "Point"}, "properties": {"marker-symbol": "circle-15", "title": "Bellevue Square"}, "type": "Feature"}, {"geometry": {"coordinates": [-73.932304, 40.786186], "type": "Point"}, "properties": {"marker-symbol": "circle-15", "title": "Randall's Island Park"}, "type": "Feature"}, {"geometry": {"coordinates": [-78.89941999999999, 36.02921], "type": "Point"}, "properties": {"marker-symbol": "circle-15", "title": "Museum of Life + Science"}, "type": "Feature"}, {"geometry": {"coordinates": [-90.25466999999999, 38.64217], "type": "Point"}, "properties": {"marker-symbol": "circle-15", "title": "Cathedral Basilica of Saint Louis"}, "type": "Feature"}, {"geometry": {"coordinates": [-70.24353, 43.662262], "type": "Point"}, "properties": {"marker-symbol": "circle-15", "title": "Ribbit Adventures"}, "type": "Feature"}, {"geometry": {"coordinates": [-81.89623, 26.407754999999998], "type": "Point"}, "properties": {"marker-symbol": "circle-15", "title": "Tropical Sands Resort"}, "type": "Feature"}, {"geometry": {"coordinates": [-122.70671000000002, 45.519096000000005], "type": "Point"}, "properties": {"marker-symbol": "circle-15", "title": "Portland Japanese Garden"}, "type": "Feature"}, {"geometry": {"coordinates": [-157.83102, 21.280071], "type": "Point"}, "properties": {"marker-symbol": "circle-15", "title": "Waikiki Beach Walk"}, "type": "Feature"}, {"geometry": {"coordinates": [-71.1445, 42.3701], "type": "Point"}, "properties": {"marker-symbol": "circle-15", "title": "Mt. Auburn Cemetery"}, "type": "Feature"}, {"geometry": {"coordinates": [-96.722336, 43.557076], "type": "Point"}, "properties": {"marker-symbol": "circle-15", "title": "Falls Park"}, "type": "Feature"}, {"geometry": {"coordinates": [-81.09128, 32.073383], "type": "Point"}, "properties": {"marker-symbol": "circle-15", "title": "Cathedral of St. John the Baptist"}, "type": "Feature"}, {"geometry": {"coordinates": [-85.41605, 36.471090000000004], "type": "Point"}, "properties": {"marker-symbol": "circle-15", "title": "Standing Stone"}, "type": "Feature"}, {"geometry": {"coordinates": [-81.58153, 28.419193], "type": "Point"}, "properties": {"marker-symbol": "circle-15", "title": "Walt Disney World Railroad"}, "type": "Feature"}, {"geometry": {"coordinates": [0.0, 0.0], "type": "Point"}, "properties": {"marker-symbol": "circle-15", "title": "Panamint Mountains"}, "type": "Feature"}, {"geometry": {"coordinates": [-156.6783, 20.87177], "type": "Point"}, "properties": {"marker-symbol": "circle-15", "title": "Lahaina Visitor Center"}, "type": "Feature"}, {"geometry": {"coordinates": [-73.95852, 41.39117], "type": "Point"}, "properties": {"marker-symbol": "circle-15", "title": "United States Military Academy"}, "type": "Feature"}, {"geometry": {"coordinates": [-71.11612, 42.37245], "type": "Point"}, "properties": {"marker-symbol": "circle-15", "title": "The Comedy Studio"}, "type": "Feature"}, {"geometry": {"coordinates": [-83.519485, 35.711098], "type": "Point"}, "properties": {"marker-symbol": "circle-15", "title": "Ole Smoky Tennessee Moonshine"}, "type": "Feature"}, {"geometry": {"coordinates": [-88.3835, 35.231834], "type": "Point"}, "properties": {"marker-symbol": "circle-15", "title": "Buford Pusser Home and Museum"}, "type": "Feature"}, {"geometry": {"coordinates": [-74.6595, 40.3485], "type": "Point"}, "properties": {"marker-symbol": "circle-15", "title": "Princeton Tour Company"}, "type": "Feature"}, {"geometry": {"coordinates": [-76.57954000000001, 39.263397], "type": "Point"}, "properties": {"marker-symbol": "circle-15", "title": "Fort McHenry National Monument"}, "type": "Feature"}, {"geometry": {"coordinates": [-93.24221999999999, 44.854865999999994], "type": "Point"}, "properties": {"marker-symbol": "circle-15", "title": "Mall of America"}, "type": "Feature"}, {"geometry": {"coordinates": [-94.84544, 39.75626], "type": "Point"}, "properties": {"marker-symbol": "circle-15", "title": "Jesse James Home Museum"}, "type": "Feature"}, {"geometry": {"coordinates": [-96.28059, 46.48273], "type": "Point"}, "properties": {"marker-symbol": "circle-15", "title": "World's Largest Prairie Chicken"}, "type": "Feature"}, {"geometry": {"coordinates": [-116.96683, 32.62363], "type": "Point"}, "properties": {"marker-symbol": "circle-15", "title": "Otay Ranch Town Center"}, "type": "Feature"}, {"geometry": {"coordinates": [-73.98512, 40.7479], "type": "Point"}, "properties": {"marker-symbol": "circle-15", "title": "Best New York Tours"}, "type": "Feature"}, {"geometry": {"coordinates": [-78.94445999999999, 33.670853], "type": "Point"}, "properties": {"marker-symbol": "circle-15", "title": "Warbird Park"}, "type": "Feature"}, {"geometry": {"coordinates": [-118.37539, 34.072990000000004], "type": "Point"}, "properties": {"marker-symbol": "circle-15", "title": "Berlins"}, "type": "Feature"}, {"geometry": {"coordinates": [-72.70129399999999, 41.766895], "type": "Point"}, "properties": {"marker-symbol": "circle-15", "title": "The Mark Twain House & Museum"}, "type": "Feature"}, {"geometry": {"coordinates": [-77.4782, 37.534416], "type": "Point"}, "properties": {"marker-symbol": "circle-15", "title": "Maymont"}, "type": "Feature"}, {"geometry": {"coordinates": [-81.28833, 29.885456], "type": "Point"}, "properties": {"marker-symbol": "circle-15", "title": "St. Augustine Lighthouse & Maritime Museum"}, "type": "Feature"}, {"geometry": {"coordinates": [-122.68383, 45.49946], "type": "Point"}, "properties": {"marker-symbol": "circle-15", "title": "Portland Aerial Tram"}, "type": "Feature"}, {"geometry": {"coordinates": [-102.95394, 29.178703000000002], "type": "Point"}, "properties": {"marker-symbol": "circle-15", "title": "Rio Grande Village"}, "type": "Feature"}, {"geometry": {"coordinates": [-81.53461999999999, 28.35578], "type": "Point"}, "properties": {"marker-symbol": "circle-15", "title": "Hilton Orlando Bonnet Creek"}, "type": "Feature"}, {"geometry": {"coordinates": [-156.51308, 20.79222], "type": "Point"}, "properties": {"marker-symbol": "circle-15", "title": "Ocean Science Discovery Center"}, "type": "Feature"}, {"geometry": {"coordinates": [-90.0098, 29.961920000000003], "type": "Point"}, "properties": {"marker-symbol": "circle-15", "title": "The House of Dance and Feathers"}, "type": "Feature"}, {"geometry": {"coordinates": [-95.667305, 39.065666], "type": "Point"}, "properties": {"marker-symbol": "circle-15", "title": "The Great Overland Station"}, "type": "Feature"}, {"geometry": {"coordinates": [-94.69677, 37.82142], "type": "Point"}, "properties": {"marker-symbol": "circle-15", "title": "Fort Scott National Cemetery"}, "type": "Feature"}, {"geometry": {"coordinates": [-87.30542, 36.56838], "type": "Point"}, "properties": {"marker-symbol": "circle-15", "title": "Cheddar's"}, "type": "Feature"}, {"geometry": {"coordinates": [0.0, 0.0], "type": "Point"}, "properties": {"marker-symbol": "circle-15", "title": "Sachuest Point National Wildlife Refuge"}, "type": "Feature"}, {"geometry": {"coordinates": [-120.66259, 47.594925], "type": "Point"}, "properties": {"marker-symbol": "circle-15", "title": "Nutcracker Museum"}, "type": "Feature"}, {"geometry": {"coordinates": [-118.640274, 34.157536], "type": "Point"}, "properties": {"marker-symbol": "circle-15", "title": "Leonis Adobe Museum"}, "type": "Feature"}, {"geometry": {"coordinates": [-124.04651000000001, 44.617053999999996], "type": "Point"}, "properties": {"marker-symbol": "circle-15", "title": "Oregon Coast Aquarium"}, "type": "Feature"}, {"geometry": {"coordinates": [-73.97799, 40.77275], "type": "Point"}, "properties": {"marker-symbol": "circle-15", "title": "Bike and Roll NYC"}, "type": "Feature"}, {"geometry": {"coordinates": [-86.45456, 36.989082], "type": "Point"}, "properties": {"marker-symbol": "circle-15", "title": "The Kentucky Museum"}, "type": "Feature"}, {"geometry": {"coordinates": [-122.41781, 47.661297], "type": "Point"}, "properties": {"marker-symbol": "circle-15", "title": "Discovery Park"}, "type": "Feature"}, {"geometry": {"coordinates": [-155.99194, 19.637222], "type": "Point"}, "properties": {"marker-symbol": "circle-15", "title": "Ali'i Drive"}, "type": "Feature"}, {"geometry": {"coordinates": [-121.88496, 38.009029999999996], "type": "Point"}, "properties": {"marker-symbol": "circle-15", "title": "Small World Park"}, "type": "Feature"}, {"geometry": {"coordinates": [-76.77865600000001, 37.208733], "type": "Point"}, "properties": {"marker-symbol": "circle-15", "title": "Historic Jamestowne"}, "type": "Feature"}, {"geometry": {"coordinates": [-84.77009, 37.64493], "type": "Point"}, "properties": {"marker-symbol": "circle-15", "title": "Constitution Square Historic Site"}, "type": "Feature"}, {"geometry": {"coordinates": [-88.27032, 37.01256], "type": "Point"}, "properties": {"marker-symbol": "circle-15", "title": "Kentucky Dam"}, "type": "Feature"}, {"geometry": {"coordinates": [-87.624016, 41.89286], "type": "Point"}, "properties": {"marker-symbol": "circle-15", "title": "The Magnificent Mile"}, "type": "Feature"}, {"geometry": {"coordinates": [-74.44694, 40.408253], "type": "Point"}, "properties": {"marker-symbol": "circle-15", "title": "Crystal Springs Family Aquatic Center"}, "type": "Feature"}, {"geometry": {"coordinates": [-71.27314, 41.6634], "type": "Point"}, "properties": {"marker-symbol": "circle-15", "title": "Herreshoff Marine Museum and America's Cup Hall of Fame"}, "type": "Feature"}, {"geometry": {"coordinates": [-86.16355, 39.77265], "type": "Point"}, "properties": {"marker-symbol": "circle-15", "title": "Kurt Vonnegut Memorial Library"}, "type": "Feature"}, {"geometry": {"coordinates": [-122.34926999999999, 47.620506], "type": "Point"}, "properties": {"marker-symbol": "circle-15", "title": "Space Needle"}, "type": "Feature"}, {"geometry": {"coordinates": [-82.44693000000001, 27.942781], "type": "Point"}, "properties": {"marker-symbol": "circle-15", "title": "Tampa By Bike"}, "type": "Feature"}, {"geometry": {"coordinates": [-121.26776000000001, 38.768238000000004], "type": "Point"}, "properties": {"marker-symbol": "circle-15", "title": "Fountains at Roseville"}, "type": "Feature"}, {"geometry": {"coordinates": [-117.24446, 32.683933], "type": "Point"}, "properties": {"marker-symbol": "circle-15", "title": "Fort Rosecrans Cemetery"}, "type": "Feature"}, {"geometry": {"coordinates": [-82.76902, 35.296043], "type": "Point"}, "properties": {"marker-symbol": "circle-15", "title": "Looking Glass Falls"}, "type": "Feature"}, {"geometry": {"coordinates": [-122.33178999999998, 47.59516], "type": "Point"}, "properties": {"marker-symbol": "circle-15", "title": "CenturyLink Field"}, "type": "Feature"}, {"geometry": {"coordinates": [-105.23841999999999, 39.73312], "type": "Point"}, "properties": {"marker-symbol": "circle-15", "title": "Buffalo Bill Grave and Museum"}, "type": "Feature"}, {"geometry": {"coordinates": [-71.68965, 44.171707], "type": "Point"}, "properties": {"marker-symbol": "circle-15", "title": "New England Ski Museum"}, "type": "Feature"}, {"geometry": {"coordinates": [-111.81485, 34.86112], "type": "Point"}, "properties": {"marker-symbol": "circle-15", "title": "Arroyo Pinion Hotel, an Ascend Hotel Collection Member"}, "type": "Feature"}, {"geometry": {"coordinates": [-73.99939, 40.734120000000004], "type": "Point"}, "properties": {"marker-symbol": "circle-15", "title": "Topaz Sightseeing NY"}, "type": "Feature"}, {"geometry": {"coordinates": [-83.62313, 32.836690000000004], "type": "Point"}, "properties": {"marker-symbol": "circle-15", "title": "Tubman African American Museum"}, "type": "Feature"}, {"geometry": {"coordinates": [-110.82898999999999, 44.459922999999996], "type": "Point"}, "properties": {"marker-symbol": "circle-15", "title": "Old Faithful"}, "type": "Feature"}, {"geometry": {"coordinates": [-118.32648, 33.348778], "type": "Point"}, "properties": {"marker-symbol": "circle-15", "title": "Catalina Island Golf Cart Rentals and Tours"}, "type": "Feature"}, {"geometry": {"coordinates": [-115.14826000000001, 36.114290000000004], "type": "Point"}, "properties": {"marker-symbol": "circle-15", "title": "The National Atomic Testing Museum"}, "type": "Feature"}, {"geometry": {"coordinates": [-97.03055, 47.925259999999994], "type": "Point"}, "properties": {"marker-symbol": "circle-15", "title": "Flood Memorial Monument"}, "type": "Feature"}, {"geometry": {"coordinates": [-110.82361000000002, 44.683], "type": "Point"}, "properties": {"marker-symbol": "circle-15", "title": "Gibbon Falls"}, "type": "Feature"}, {"geometry": {"coordinates": [-74.8789, 40.288307], "type": "Point"}, "properties": {"marker-symbol": "circle-15", "title": "Bowman's Hill Tower"}, "type": "Feature"}, {"geometry": {"coordinates": [-74.00929000000001, 40.74661], "type": "Point"}, "properties": {"marker-symbol": "circle-15", "title": "Chelsea Piers"}, "type": "Feature"}, {"geometry": {"coordinates": [-85.65675, 42.960335], "type": "Point"}, "properties": {"marker-symbol": "circle-15", "title": "Heritage Hill Historic District"}, "type": "Feature"}, {"geometry": {"coordinates": [-81.85226999999999, 34.59127], "type": "Point"}, "properties": {"marker-symbol": "circle-15", "title": "Musgrove Mill State Historic Site"}, "type": "Feature"}, {"geometry": {"coordinates": [-75.15013, 39.950953999999996], "type": "Point"}, "properties": {"marker-symbol": "circle-15", "title": "Independence Visitor Center"}, "type": "Feature"}, {"geometry": {"coordinates": [-101.7253, 41.132220000000004], "type": "Point"}, "properties": {"marker-symbol": "circle-15", "title": "Boot Hill Cemetery"}, "type": "Feature"}, {"geometry": {"coordinates": [-73.21701999999999, 42.20629], "type": "Point"}, "properties": {"marker-symbol": "circle-15", "title": "Bidwell House Museum"}, "type": "Feature"}, {"geometry": {"coordinates": [0.0, 0.0], "type": "Point"}, "properties": {"marker-symbol": "circle-15", "title": "Painted Desert Visitor Center"}, "type": "Feature"}, {"geometry": {"coordinates": [-116.79728, 36.357883], "type": "Point"}, "properties": {"marker-symbol": "circle-15", "title": "Artist's Drive"}, "type": "Feature"}, {"geometry": {"coordinates": [-87.64137, 41.82031], "type": "Point"}, "properties": {"marker-symbol": "circle-15", "title": "Chicago Trolley & Double Decker Co."}, "type": "Feature"}, {"geometry": {"coordinates": [-73.99035, 40.735935], "type": "Point"}, "properties": {"marker-symbol": "circle-15", "title": "Union Square"}, "type": "Feature"}, {"geometry": {"coordinates": [-71.06573, 42.356083], "type": "Point"}, "properties": {"marker-symbol": "circle-15", "title": "Frog Pond"}, "type": "Feature"}, {"geometry": {"coordinates": [-159.36478, 21.971610000000002], "type": "Point"}, "properties": {"marker-symbol": "circle-15", "title": "Kalena Fish Market"}, "type": "Feature"}, {"geometry": {"coordinates": [-71.54295, 43.21748], "type": "Point"}, "properties": {"marker-symbol": "circle-15", "title": "Pierce Manse"}, "type": "Feature"}, {"geometry": {"coordinates": [-80.47154, 35.283879999999996], "type": "Point"}, "properties": {"marker-symbol": "circle-15", "title": "Reed Gold Mine State Historic Site"}, "type": "Feature"}, {"geometry": {"coordinates": [-72.68235, 41.76426], "type": "Point"}, "properties": {"marker-symbol": "circle-15", "title": "Connecticut State Capitol"}, "type": "Feature"}, {"geometry": {"coordinates": [-70.06241999999999, 42.039103999999995], "type": "Point"}, "properties": {"marker-symbol": "circle-15", "title": "Highland Light"}, "type": "Feature"}, {"geometry": {"coordinates": [-81.31291, 29.897032], "type": "Point"}, "properties": {"marker-symbol": "circle-15", "title": "St. Augustine Pirate & Treasure Museum"}, "type": "Feature"}, {"geometry": {"coordinates": [-91.307846, 30.797464], "type": "Point"}, "properties": {"marker-symbol": "circle-15", "title": "Audubon State Historic Site"}, "type": "Feature"}, {"geometry": {"coordinates": [-81.46858, 28.474663], "type": "Point"}, "properties": {"marker-symbol": "circle-15", "title": "Blue Man Group"}, "type": "Feature"}, {"geometry": {"coordinates": [-97.15887, 26.07355], "type": "Point"}, "properties": {"marker-symbol": "circle-15", "title": "University of Texas - Pan American Coastal Studies Lab"}, "type": "Feature"}, {"geometry": {"coordinates": [-131.64446999999998, 55.340405000000004], "type": "Point"}, "properties": {"marker-symbol": "circle-15", "title": "Caribou Creek Company"}, "type": "Feature"}, {"geometry": {"coordinates": [-157.85811, 21.308805], "type": "Point"}, "properties": {"marker-symbol": "circle-15", "title": "Hawaii State Art Museum"}, "type": "Feature"}, {"geometry": {"coordinates": [-105.84127, 40.2559], "type": "Point"}, "properties": {"marker-symbol": "circle-15", "title": "Elk Creek Campground and RV Park"}, "type": "Feature"}, {"geometry": {"coordinates": [-73.977715, 40.75177], "type": "Point"}, "properties": {"marker-symbol": "circle-15", "title": "Yellow Moon Tours"}, "type": "Feature"}, {"geometry": {"coordinates": [-80.156715, 26.428778], "type": "Point"}, "properties": {"marker-symbol": "circle-15", "title": "Morikami Museum & Japanese Gardens"}, "type": "Feature"}, {"geometry": {"coordinates": [-73.99036, 40.7144], "type": "Point"}, "properties": {"marker-symbol": "circle-15", "title": "Chinatown"}, "type": "Feature"}, {"geometry": {"coordinates": [-115.15823999999999, 36.163876], "type": "Point"}, "properties": {"marker-symbol": "circle-15", "title": "Las Vegas North Premium Outlets"}, "type": "Feature"}, {"geometry": {"coordinates": [-84.393036, 32.03354], "type": "Point"}, "properties": {"marker-symbol": "circle-15", "title": "Plain Peanuts Store"}, "type": "Feature"}, {"geometry": {"coordinates": [-124.12811, 44.137383], "type": "Point"}, "properties": {"marker-symbol": "circle-15", "title": "Heceta Head Lighthouse"}, "type": "Feature"}, {"geometry": {"coordinates": [-115.9238, 47.473465000000004], "type": "Point"}, "properties": {"marker-symbol": "circle-15", "title": "Northern Pacific Depot"}, "type": "Feature"}, {"geometry": {"coordinates": [-118.4486, 34.014509999999994], "type": "Point"}, "properties": {"marker-symbol": "circle-15", "title": "Museum of Flying"}, "type": "Feature"}, {"geometry": {"coordinates": [-122.57807, 37.89537], "type": "Point"}, "properties": {"marker-symbol": "circle-15", "title": "Muir Woods National Monument"}, "type": "Feature"}, {"geometry": {"coordinates": [-75.58341999999999, 39.993057], "type": "Point"}, "properties": {"marker-symbol": "circle-15", "title": "QVC Studio Park"}, "type": "Feature"}, {"geometry": {"coordinates": [-98.49061999999999, 29.426098], "type": "Point"}, "properties": {"marker-symbol": "circle-15", "title": "Majestic Theatre"}, "type": "Feature"}, {"geometry": {"coordinates": [-84.54895, 33.946495], "type": "Point"}, "properties": {"marker-symbol": "circle-15", "title": "Marietta Confederate Cemetery"}, "type": "Feature"}, {"geometry": {"coordinates": [-81.86591999999999, 33.415473999999996], "type": "Point"}, "properties": {"marker-symbol": "circle-15", "title": "Redcliffe Plantation State"}, "type": "Feature"}, {"geometry": {"coordinates": [-87.142166, 30.330334000000004], "type": "Point"}, "properties": {"marker-symbol": "circle-15", "title": "Pensacola Beach Gulf Pier"}, "type": "Feature"}, {"geometry": {"coordinates": [-156.02614, 19.674282], "type": "Point"}, "properties": {"marker-symbol": "circle-15", "title": "Kaloko-Honokohau National Historical Park"}, "type": "Feature"}, {"geometry": {"coordinates": [-75.0668, 38.63412], "type": "Point"}, "properties": {"marker-symbol": "circle-15", "title": "Indian River Life-Saving Station Museum at Delaware Seashore State Park"}, "type": "Feature"}, {"geometry": {"coordinates": [-121.43858, 38.592182], "type": "Point"}, "properties": {"marker-symbol": "circle-15", "title": "California Exposition & State Fair"}, "type": "Feature"}, {"geometry": {"coordinates": [-81.69614399999999, 41.51041], "type": "Point"}, "properties": {"marker-symbol": "circle-15", "title": "Cleveland Bike Tours"}, "type": "Feature"}, {"geometry": {"coordinates": [0.0, 0.0], "type": "Point"}, "properties": {"marker-symbol": "circle-15", "title": "Cowboy Way Adventures"}, "type": "Feature"}, {"geometry": {"coordinates": [-117.17886999999999, 32.680176], "type": "Point"}, "properties": {"marker-symbol": "circle-15", "title": "Coronado Island"}, "type": "Feature"}, {"geometry": {"coordinates": [-75.18355, 39.96634], "type": "Point"}, "properties": {"marker-symbol": "circle-15", "title": "Fairmount Water Works Interpretive Education Center"}, "type": "Feature"}, {"geometry": {"coordinates": [-111.529, 47.4897], "type": "Point"}, "properties": {"marker-symbol": "circle-15", "title": "First Peoples Buffalo Jump State Park"}, "type": "Feature"}, {"geometry": {"coordinates": [-92.4619, 34.84393], "type": "Point"}, "properties": {"marker-symbol": "circle-15", "title": "Pinnacle Mountain State Park"}, "type": "Feature"}, {"geometry": {"coordinates": [-155.99745, 19.64087], "type": "Point"}, "properties": {"marker-symbol": "circle-15", "title": "Kailua Bay Charters - Glassbottom Boat Cruise"}, "type": "Feature"}, {"geometry": {"coordinates": [-109.06545, 35.6619], "type": "Point"}, "properties": {"marker-symbol": "circle-15", "title": "Navajo Nation Museum"}, "type": "Feature"}, {"geometry": {"coordinates": [-75.07499, 38.715263], "type": "Point"}, "properties": {"marker-symbol": "circle-15", "title": "Rehoboth Beach Boardwalk"}, "type": "Feature"}, {"geometry": {"coordinates": [-95.46135, 29.735964000000003], "type": "Point"}, "properties": {"marker-symbol": "circle-15", "title": "Water Wall"}, "type": "Feature"}, {"geometry": {"coordinates": [-151.5537, 59.640319999999996], "type": "Point"}, "properties": {"marker-symbol": "circle-15", "title": "Oceanview RV Park, Homer Alaska"}, "type": "Feature"}, {"geometry": {"coordinates": [-86.15442, 39.784164000000004], "type": "Point"}, "properties": {"marker-symbol": "circle-15", "title": "Benjamin Harrison Presidential Site"}, "type": "Feature"}, {"geometry": {"coordinates": [0.0, 0.0], "type": "Point"}, "properties": {"marker-symbol": "circle-15", "title": "River Rail Electric Streetcar"}, "type": "Feature"}, {"geometry": {"coordinates": [-109.54471000000001, 38.57659], "type": "Point"}, "properties": {"marker-symbol": "circle-15", "title": "Moab Canyon Tours"}, "type": "Feature"}, {"geometry": {"coordinates": [-112.13694, 36.057842], "type": "Point"}, "properties": {"marker-symbol": "circle-15", "title": "Hopi House"}, "type": "Feature"}, {"geometry": {"coordinates": [-81.4625, 28.3045], "type": "Point"}, "properties": {"marker-symbol": "circle-15", "title": "Medieval Times Dinner & Tournament"}, "type": "Feature"}, {"geometry": {"coordinates": [-119.29601000000001, 34.284863], "type": "Point"}, "properties": {"marker-symbol": "circle-15", "title": "Serra Cross Park"}, "type": "Feature"}, {"geometry": {"coordinates": [-70.04485, 41.291203], "type": "Point"}, "properties": {"marker-symbol": "circle-15", "title": "Nantucket Shipwreck & Lifesaving Museum"}, "type": "Feature"}, {"geometry": {"coordinates": [-93.280334, 36.638165], "type": "Point"}, "properties": {"marker-symbol": "circle-15", "title": "Titanic Museum"}, "type": "Feature"}, {"geometry": {"coordinates": [-80.32075999999999, 26.151424], "type": "Point"}, "properties": {"marker-symbol": "circle-15", "title": "Sawgrass Mills"}, "type": "Feature"}, {"geometry": {"coordinates": [-93.64439399999999, 46.152145000000004], "type": "Point"}, "properties": {"marker-symbol": "circle-15", "title": "Lake Mille Lacs"}, "type": "Feature"}, {"geometry": {"coordinates": [-118.87512, 34.038115999999995], "type": "Point"}, "properties": {"marker-symbol": "circle-15", "title": "El Matador State Beach"}, "type": "Feature"}, {"geometry": {"coordinates": [-77.00995999999999, 38.884087], "type": "Point"}, "properties": {"marker-symbol": "circle-15", "title": "The American Veterans Disabled For Life Memorial"}, "type": "Feature"}, {"geometry": {"coordinates": [-124.01461, 44.970257000000004], "type": "Point"}, "properties": {"marker-symbol": "circle-15", "title": "Lincoln City Cultural Center"}, "type": "Feature"}, {"geometry": {"coordinates": [-81.39376999999999, 28.444683], "type": "Point"}, "properties": {"marker-symbol": "circle-15", "title": "M&M'S World"}, "type": "Feature"}, {"geometry": {"coordinates": [-83.53673, 35.685707], "type": "Point"}, "properties": {"marker-symbol": "circle-15", "title": "Sugarlands Visitors Center"}, "type": "Feature"}, {"geometry": {"coordinates": [-82.07534, 26.439753999999997], "type": "Point"}, "properties": {"marker-symbol": "circle-15", "title": "BIG Arts (Barrier Island Group for the Arts)"}, "type": "Feature"}, {"geometry": {"coordinates": [-85.312546, 35.043728], "type": "Point"}, "properties": {"marker-symbol": "circle-15", "title": "Chattanooga Marriott Downtown"}, "type": "Feature"}, {"geometry": {"coordinates": [-81.9221, 28.98289], "type": "Point"}, "properties": {"marker-symbol": "circle-15", "title": "The Orange Blossom Opry"}, "type": "Feature"}, {"geometry": {"coordinates": [-118.49833999999998, 34.013884999999995], "type": "Point"}, "properties": {"marker-symbol": "circle-15", "title": "Palisades Park"}, "type": "Feature"}, {"geometry": {"coordinates": [-82.41351, 36.668243], "type": "Point"}, "properties": {"marker-symbol": "circle-15", "title": "The Carter Fold"}, "type": "Feature"}, {"geometry": {"coordinates": [-75.24516, 43.104440000000004], "type": "Point"}, "properties": {"marker-symbol": "circle-15", "title": "Matt Brewing Co."}, "type": "Feature"}, {"geometry": {"coordinates": [-88.80048000000001, 30.415670000000002], "type": "Point"}, "properties": {"marker-symbol": "circle-15", "title": "Mississippi Vietnam Veterans Memorial"}, "type": "Feature"}, {"geometry": {"coordinates": [-77.065865, 38.807495], "type": "Point"}, "properties": {"marker-symbol": "circle-15", "title": "George Washington Masonic National Memorial"}, "type": "Feature"}, {"geometry": {"coordinates": [-120.854, 35.367332], "type": "Point"}, "properties": {"marker-symbol": "circle-15", "title": "Morro Rock"}, "type": "Feature"}, {"geometry": {"coordinates": [-80.105774, 26.112398000000002], "type": "Point"}, "properties": {"marker-symbol": "circle-15", "title": "Jungle Queen Riverboat"}, "type": "Feature"}, {"geometry": {"coordinates": [-93.04596, 34.51662], "type": "Point"}, "properties": {"marker-symbol": "circle-15", "title": "Hot Springs Mountain Tower"}, "type": "Feature"}, {"geometry": {"coordinates": [-122.01721, 36.964375], "type": "Point"}, "properties": {"marker-symbol": "circle-15", "title": "Santa Cruz Beach Boardwalk"}, "type": "Feature"}, {"geometry": {"coordinates": [-86.88532, 40.41285], "type": "Point"}, "properties": {"marker-symbol": "circle-15", "title": "Haan Mansion Museum of Indiana Art"}, "type": "Feature"}, {"geometry": {"coordinates": [0.0, 0.0], "type": "Point"}, "properties": {"marker-symbol": "circle-15", "title": "Big Apple Fanatics Tours"}, "type": "Feature"}, {"geometry": {"coordinates": [-95.678, 39.048], "type": "Point"}, "properties": {"marker-symbol": "circle-15", "title": "Kansas State Capitol Building"}, "type": "Feature"}, {"geometry": {"coordinates": [-74.03132, 40.716076], "type": "Point"}, "properties": {"marker-symbol": "circle-15", "title": "J. Owen Grundy Park"}, "type": "Feature"}, {"geometry": {"coordinates": [-85.30866, 29.814890000000002], "type": "Point"}, "properties": {"marker-symbol": "circle-15", "title": "Port Saint Joe Marina"}, "type": "Feature"}, {"geometry": {"coordinates": [-100.79538000000001, 41.16375], "type": "Point"}, "properties": {"marker-symbol": "circle-15", "title": "Buffalo Bill Ranch State Historical Park"}, "type": "Feature"}, {"geometry": {"coordinates": [-115.16888, 36.109207], "type": "Point"}, "properties": {"marker-symbol": "circle-15", "title": "Vegas! The Show"}, "type": "Feature"}, {"geometry": {"coordinates": [-122.41855, 37.75315], "type": "Point"}, "properties": {"marker-symbol": "circle-15", "title": "Tours By Lily"}, "type": "Feature"}, {"geometry": {"coordinates": [-87.3006, 36.8419], "type": "Point"}, "properties": {"marker-symbol": "circle-15", "title": "Jefferson Davis State Historic Site"}, "type": "Feature"}, {"geometry": {"coordinates": [-81.79616, 26.14173], "type": "Point"}, "properties": {"marker-symbol": "circle-15", "title": "Naples Chocolate Stroll"}, "type": "Feature"}, {"geometry": {"coordinates": [-95.732925, 36.193497], "type": "Point"}, "properties": {"marker-symbol": "circle-15", "title": "Blue Whale of Catoosa"}, "type": "Feature"}, {"geometry": {"coordinates": [-112.14424, 36.05355], "type": "Point"}, "properties": {"marker-symbol": "circle-15", "title": "Maswik Lodge"}, "type": "Feature"}, {"geometry": {"coordinates": [-159.47571000000002, 22.212702], "type": "Point"}, "properties": {"marker-symbol": "circle-15", "title": "Hanalei Valley Lookout"}, "type": "Feature"}, {"geometry": {"coordinates": [-117.144554, 32.734146], "type": "Point"}, "properties": {"marker-symbol": "circle-15", "title": "Balboa Park"}, "type": "Feature"}, {"geometry": {"coordinates": [-157.86118000000002, 21.309368], "type": "Point"}, "properties": {"marker-symbol": "circle-15", "title": "Aston at the Executive Centre Hotel"}, "type": "Feature"}, {"geometry": {"coordinates": [-73.99344, 40.750504], "type": "Point"}, "properties": {"marker-symbol": "circle-15", "title": "Madison Square Garden"}, "type": "Feature"}, {"geometry": {"coordinates": [-74.79396, 39.61135], "type": "Point"}, "properties": {"marker-symbol": "circle-15", "title": "Batsto Village"}, "type": "Feature"}, {"geometry": {"coordinates": [-87.627815, 41.885653999999995], "type": "Point"}, "properties": {"marker-symbol": "circle-15", "title": "The Chicago Theatre"}, "type": "Feature"}, {"geometry": {"coordinates": [-105.28617, 38.913593], "type": "Point"}, "properties": {"marker-symbol": "circle-15", "title": "Florissant Fossil Beds National Monument"}, "type": "Feature"}, {"geometry": {"coordinates": [-122.154625, 37.443020000000004], "type": "Point"}, "properties": {"marker-symbol": "circle-15", "title": "Hewlett Packard Garage"}, "type": "Feature"}, {"geometry": {"coordinates": [-119.012115, 34.07029], "type": "Point"}, "properties": {"marker-symbol": "circle-15", "title": "Thornhill Broome Campground"}, "type": "Feature"}, {"geometry": {"coordinates": [0.0, 0.0], "type": "Point"}, "properties": {"marker-symbol": "circle-15", "title": "Piedra Falls"}, "type": "Feature"}, {"geometry": {"coordinates": [-122.03246999999999, 47.53517], "type": "Point"}, "properties": {"marker-symbol": "circle-15", "title": "Boehms Candies"}, "type": "Feature"}, {"geometry": {"coordinates": [-117.2579, 32.9185], "type": "Point"}, "properties": {"marker-symbol": "circle-15", "title": "Torrey Pines State Natural Reserve"}, "type": "Feature"}, {"geometry": {"coordinates": [-107.85453999999999, 35.15335], "type": "Point"}, "properties": {"marker-symbol": "circle-15", "title": "New Mexico Mining Museum"}, "type": "Feature"}, {"geometry": {"coordinates": [-74.02253, 40.628322999999995], "type": "Point"}, "properties": {"marker-symbol": "circle-15", "title": "The League of Kitchens"}, "type": "Feature"}, {"geometry": {"coordinates": [-74.9139, 41.1538], "type": "Point"}, "properties": {"marker-symbol": "circle-15", "title": "Delaware Water Gap National Recreation Area"}, "type": "Feature"}, {"geometry": {"coordinates": [-92.26416, 34.748000000000005], "type": "Point"}, "properties": {"marker-symbol": "circle-15", "title": "Witt Stephens Jr. Central Arkansas Nature Center"}, "type": "Feature"}, {"geometry": {"coordinates": [-122.70612, 45.51887], "type": "Point"}, "properties": {"marker-symbol": "circle-15", "title": "Washington Park"}, "type": "Feature"}, {"geometry": {"coordinates": [-123.84402, 45.484287], "type": "Point"}, "properties": {"marker-symbol": "circle-15", "title": "Tillamook Cheese Factory"}, "type": "Feature"}, {"geometry": {"coordinates": [-111.97814, 33.66792], "type": "Point"}, "properties": {"marker-symbol": "circle-15", "title": "Musical Instrument Museum"}, "type": "Feature"}, {"geometry": {"coordinates": [-117.18363000000001, 34.053905], "type": "Point"}, "properties": {"marker-symbol": "circle-15", "title": "The Lincoln Memorial Shrine"}, "type": "Feature"}, {"geometry": {"coordinates": [-123.87929, 46.13413], "type": "Point"}, "properties": {"marker-symbol": "circle-15", "title": "Fort Clatsop National Memorial"}, "type": "Feature"}, {"geometry": {"coordinates": [-95.43287, 29.731005], "type": "Point"},