{"features": [{"geometry": {"coordinates": [-157.83087, 21.278008], "type": "Point"}, "properties": {"marker-symbol": "circle-15", "title": "Nobu Honolulu"}, "type": "Feature"}, {"geometry": {"coordinates": [-80.1895, 25.770554999999998], "type": "Point"}, "properties": {"marker-symbol": "circle-15", "title": "Kimpton EPIC Hotel"}, "type": "Feature"}, {"geometry": {"coordinates": [-111.96916, 33.50441], "type": "Point"}, "properties": {"marker-symbol": "circle-15", "title": "Royal Palms Resort and Spa"}, "type": "Feature"}, {"geometry": {"coordinates": [-73.97896, 40.765384999999995], "type": "Point"}, "properties": {"marker-symbol": "circle-15", "title": "Park Hyatt New York"}, "type": "Feature"}, {"geometry": {"coordinates": [-73.99006, 40.747046999999995], "type": "Point"}, "properties": {"marker-symbol": "circle-15", "title": "Kimpton Hotel Eventi"}, "type": "Feature"}, {"geometry": {"coordinates": [-115.16573000000001, 36.126476000000004], "type": "Point"}, "properties": {"marker-symbol": "circle-15", "title": "Wynn Las Vegas"}, "type": "Feature"}, {"geometry": {"coordinates": [-87.62755600000001, 41.88865], "type": "Point"}, "properties": {"marker-symbol": "circle-15", "title": "The Langham, Chicago"}, "type": "Feature"}, {"geometry": {"coordinates": [-73.99654, 40.75976], "type": "Point"}, "properties": {"marker-symbol": "circle-15", "title": "The Out NYC"}, "type": "Feature"}, {"geometry": {"coordinates": [-77.05189, 38.903397], "type": "Point"}, "properties": {"marker-symbol": "circle-15", "title": "Marcel's by Robert Wiedmaier"}, "type": "Feature"}, {"geometry": {"coordinates": [-73.98519, 40.752342], "type": "Point"}, "properties": {"marker-symbol": "circle-15", "title": "Refinery Hotel"}, "type": "Feature"}, {"geometry": {"coordinates": [-116.544945, 33.831345], "type": "Point"}, "properties": {"marker-symbol": "circle-15", "title": "Colony Palms Hotel"}, "type": "Feature"}, {"geometry": {"coordinates": [-77.03146, 38.90511], "type": "Point"}, "properties": {"marker-symbol": "circle-15", "title": "Kimpton Donovan"}, "type": "Feature"}, {"geometry": {"coordinates": [-87.628426, 41.894257], "type": "Point"}, "properties": {"marker-symbol": "circle-15", "title": "dana hotel and spa"}, "type": "Feature"}, {"geometry": {"coordinates": [-106.37508400000002, 39.642307], "type": "Point"}, "properties": {"marker-symbol": "circle-15", "title": "Matsuhisa Vail"}, "type": "Feature"}, {"geometry": {"coordinates": [-73.97653000000001, 40.76495], "type": "Point"}, "properties": {"marker-symbol": "circle-15", "title": "1 Hotel Central Park"}, "type": "Feature"}, {"geometry": {"coordinates": [-74.00007, 40.719814], "type": "Point"}, "properties": {"marker-symbol": "circle-15", "title": "NOMO SOHO Hotel"}, "type": "Feature"}, {"geometry": {"coordinates": [-87.62172, 41.89367], "type": "Point"}, "properties": {"marker-symbol": "circle-15", "title": "Les Nomades"}, "type": "Feature"}, {"geometry": {"coordinates": [-93.27269, 44.971268], "type": "Point"}, "properties": {"marker-symbol": "circle-15", "title": "Hotel Ivy"}, "type": "Feature"}, {"geometry": {"coordinates": [-73.98809, 40.71976], "type": "Point"}, "properties": {"marker-symbol": "circle-15", "title": "Hotel on Rivington"}, "type": "Feature"}, {"geometry": {"coordinates": [-105.0047, 39.755226], "type": "Point"}, "properties": {"marker-symbol": "circle-15", "title": "Zengo"}, "type": "Feature"}, {"geometry": {"coordinates": [-90.18488, 38.632940000000005], "type": "Point"}, "properties": {"marker-symbol": "circle-15", "title": "Four Seasons Hotel St. Louis"}, "type": "Feature"}, {"geometry": {"coordinates": [-122.40606000000001, 38.493465], "type": "Point"}, "properties": {"marker-symbol": "circle-15", "title": "Auberge du Soleil"}, "type": "Feature"}, {"geometry": {"coordinates": [-122.40671999999999, 37.78921], "type": "Point"}, "properties": {"marker-symbol": "circle-15", "title": "Taj Campton Place"}, "type": "Feature"}, {"geometry": {"coordinates": [-118.38356, 34.06762], "type": "Point"}, "properties": {"marker-symbol": "circle-15", "title": "Tagine"}, "type": "Feature"}, {"geometry": {"coordinates": [-73.96329, 40.775326], "type": "Point"}, "properties": {"marker-symbol": "circle-15", "title": "The Mark"}, "type": "Feature"}, {"geometry": {"coordinates": [-73.98669, 40.767140000000005], "type": "Point"}, "properties": {"marker-symbol": "circle-15", "title": "Kilo"}, "type": "Feature"}, {"geometry": {"coordinates": [-73.98714, 40.72181], "type": "Point"}, "properties": {"marker-symbol": "circle-15", "title": "The Ludlow New York City"}, "type": "Feature"}, {"geometry": {"coordinates": [-122.40705, 37.791607], "type": "Point"}, "properties": {"marker-symbol": "circle-15", "title": "The Ritz-Carlton, San Francisco"}, "type": "Feature"}, {"geometry": {"coordinates": [-156.44273, 20.680834], "type": "Point"}, "properties": {"marker-symbol": "circle-15", "title": "The Spa at Four Seasons Resort Maui"}, "type": "Feature"}, {"geometry": {"coordinates": [-122.36061000000001, 38.40014], "type": "Point"}, "properties": {"marker-symbol": "circle-15", "title": "Spa Villagio"}, "type": "Feature"}, {"geometry": {"coordinates": [-115.15353400000001, 36.10903], "type": "Point"}, "properties": {"marker-symbol": "circle-15", "title": "Nobu"}, "type": "Feature"}, {"geometry": {"coordinates": [-74.00575, 40.739933], "type": "Point"}, "properties": {"marker-symbol": "circle-15", "title": "Gansevoort Meatpacking NYC"}, "type": "Feature"}, {"geometry": {"coordinates": [-73.9841, 40.743953999999995], "type": "Point"}, "properties": {"marker-symbol": "circle-15", "title": "Gansevoort Park Avenue NYC"}, "type": "Feature"}, {"geometry": {"coordinates": [-80.12926, 25.795707999999998], "type": "Point"}, "properties": {"marker-symbol": "circle-15", "title": "Villa Bagatelle"}, "type": "Feature"}, {"geometry": {"coordinates": [-84.38323000000001, 33.783314000000004], "type": "Point"}, "properties": {"marker-symbol": "circle-15", "title": "Loews Atlanta Hotel"}, "type": "Feature"}, {"geometry": {"coordinates": [-81.53353, 28.353147999999997], "type": "Point"}, "properties": {"marker-symbol": "circle-15", "title": "Waldorf Astoria Orlando"}, "type": "Feature"}, {"geometry": {"coordinates": [-119.70409, 34.439034], "type": "Point"}, "properties": {"marker-symbol": "circle-15", "title": "Belmond El Encanto"}, "type": "Feature"}, {"geometry": {"coordinates": [-84.38256, 33.839928], "type": "Point"}, "properties": {"marker-symbol": "circle-15", "title": "The St. Regis Atlanta"}, "type": "Feature"}, {"geometry": {"coordinates": [-83.19696, 35.052128], "type": "Point"}, "properties": {"marker-symbol": "circle-15", "title": "Old Edwards Inn and Spa"}, "type": "Feature"}, {"geometry": {"coordinates": [-118.44091, 34.063248], "type": "Point"}, "properties": {"marker-symbol": "circle-15", "title": "W Los Angeles - West Beverly Hills"}, "type": "Feature"}, {"geometry": {"coordinates": [-74.433174, 39.37879], "type": "Point"}, "properties": {"marker-symbol": "circle-15", "title": "The Water Club by Borgata"}, "type": "Feature"}, {"geometry": {"coordinates": [-80.84148, 35.226116], "type": "Point"}, "properties": {"marker-symbol": "circle-15", "title": "The Ritz-Carlton, Charlotte"}, "type": "Feature"}, {"geometry": {"coordinates": [-117.15872, 32.71373], "type": "Point"}, "properties": {"marker-symbol": "circle-15", "title": "Andaz San Diego"}, "type": "Feature"}, {"geometry": {"coordinates": [-84.36027, 33.846073], "type": "Point"}, "properties": {"marker-symbol": "circle-15", "title": "JW Marriott Atlanta Buckhead"}, "type": "Feature"}, {"geometry": {"coordinates": [-115.17499, 36.117259999999995], "type": "Point"}, "properties": {"marker-symbol": "circle-15", "title": "Nobu Caesars Palace"}, "type": "Feature"}, {"geometry": {"coordinates": [-73.97352, 40.755703000000004], "type": "Point"}, "properties": {"marker-symbol": "circle-15", "title": "InterContinental New York Barclay"}, "type": "Feature"}, {"geometry": {"coordinates": [-77.03020500000001, 38.883595], "type": "Point"}, "properties": {"marker-symbol": "circle-15", "title": "Mandarin Oriental, Washington DC"}, "type": "Feature"}, {"geometry": {"coordinates": [-74.00312, 40.723929999999996], "type": "Point"}, "properties": {"marker-symbol": "circle-15", "title": "SIXTY SoHo"}, "type": "Feature"}, {"geometry": {"coordinates": [-80.13053000000001, 25.782427], "type": "Point"}, "properties": {"marker-symbol": "circle-15", "title": "Hotel Victor"}, "type": "Feature"}, {"geometry": {"coordinates": [-74.009, 40.726334], "type": "Point"}, "properties": {"marker-symbol": "circle-15", "title": "Hotel Hugo"}, "type": "Feature"}, {"geometry": {"coordinates": [-105.28276000000001, 40.015846], "type": "Point"}, "properties": {"marker-symbol": "circle-15", "title": "St Julien Hotel and Spa"}, "type": "Feature"}, {"geometry": {"coordinates": [-106.819374, 39.19092], "type": "Point"}, "properties": {"marker-symbol": "circle-15", "title": "Hotel Jerome, An Auberge Resort"}, "type": "Feature"}, {"geometry": {"coordinates": [-116.21065, 43.61843], "type": "Point"}, "properties": {"marker-symbol": "circle-15", "title": "Modern Hotel and Bar"}, "type": "Feature"}, {"geometry": {"coordinates": [-83.06038000000001, 42.33351], "type": "Point"}, "properties": {"marker-symbol": "circle-15", "title": "MGM Grand Detroit"}, "type": "Feature"}, {"geometry": {"coordinates": [-118.45063, 33.98445], "type": "Point"}, "properties": {"marker-symbol": "circle-15", "title": "The Ritz-Carlton, Marina del Rey"}, "type": "Feature"}, {"geometry": {"coordinates": [-75.15326999999999, 39.949653999999995], "type": "Point"}, "properties": {"marker-symbol": "circle-15", "title": "Morimoto"}, "type": "Feature"}, {"geometry": {"coordinates": [-71.0813, 42.348797], "type": "Point"}, "properties": {"marker-symbol": "circle-15", "title": "Mandarin Oriental, Boston"}, "type": "Feature"}, {"geometry": {"coordinates": [-80.21297, 26.051865], "type": "Point"}, "properties": {"marker-symbol": "circle-15", "title": "Kuro"}, "type": "Feature"}, {"geometry": {"coordinates": [-83.00299, 39.975018], "type": "Point"}, "properties": {"marker-symbol": "circle-15", "title": "Le Meridien Columbus, The Joseph"}, "type": "Feature"}, {"geometry": {"coordinates": [-80.122375, 25.819561], "type": "Point"}, "properties": {"marker-symbol": "circle-15", "title": "Nobu Hotel Miami Beach"}, "type": "Feature"}, {"geometry": {"coordinates": [-80.13009, 25.7871], "type": "Point"}, "properties": {"marker-symbol": "circle-15", "title": "Z Ocean Hotel South Beach"}, "type": "Feature"}, {"geometry": {"coordinates": [-77.05686, 38.805943], "type": "Point"}, "properties": {"marker-symbol": "circle-15", "title": "Kimpton Lorien Hotel & Spa"}, "type": "Feature"}, {"geometry": {"coordinates": [-122.40148, 37.786156], "type": "Point"}, "properties": {"marker-symbol": "circle-15", "title": "The St. Regis San Francisco"}, "type": "Feature"}, {"geometry": {"coordinates": [-122.40081, 37.7951], "type": "Point"}, "properties": {"marker-symbol": "circle-15", "title": "Club Quarters Hotel in San Francisco"}, "type": "Feature"}, {"geometry": {"coordinates": [-73.996025, 40.764503000000005], "type": "Point"}, "properties": {"marker-symbol": "circle-15", "title": "Kimpton Ink48 Hotel"}, "type": "Feature"}, {"geometry": {"coordinates": [-118.2565, 34.0529], "type": "Point"}, "properties": {"marker-symbol": "circle-15", "title": "The Westin Bonaventure Hotel & Suites"}, "type": "Feature"}, {"geometry": {"coordinates": [-73.96831, 40.766709999999996], "type": "Point"}, "properties": {"marker-symbol": "circle-15", "title": "Hotel Plaza Athenee New York"}, "type": "Feature"}, {"geometry": {"coordinates": [-73.996864, 40.732628000000005], "type": "Point"}, "properties": {"marker-symbol": "circle-15", "title": "The Marlton Hotel"}, "type": "Feature"}, {"geometry": {"coordinates": [-80.122345, 25.817865], "type": "Point"}, "properties": {"marker-symbol": "circle-15", "title": "Hakkasan"}, "type": "Feature"}, {"geometry": {"coordinates": [-73.996635, 40.736156], "type": "Point"}, "properties": {"marker-symbol": "circle-15", "title": "Walker Hotel Greenwich Village"}, "type": "Feature"}, {"geometry": {"coordinates": [-118.38921, 34.072876], "type": "Point"}, "properties": {"marker-symbol": "circle-15", "title": "Four Seasons Hotel Los Angeles at Beverly Hills"}, "type": "Feature"}, {"geometry": {"coordinates": [-73.98118000000001, 40.72473], "type": "Point"}, "properties": {"marker-symbol": "circle-15", "title": "Pardon My French"}, "type": "Feature"}, {"geometry": {"coordinates": [-93.27699, 44.976105], "type": "Point"}, "properties": {"marker-symbol": "circle-15", "title": "Le Meridien Chambers Minneapolis"}, "type": "Feature"}, {"geometry": {"coordinates": [-73.99150999999999, 40.725933000000005], "type": "Point"}, "properties": {"marker-symbol": "circle-15", "title": "The Bowery Hotel"}, "type": "Feature"}, {"geometry": {"coordinates": [-110.77435, 43.504017], "type": "Point"}, "properties": {"marker-symbol": "circle-15", "title": "Amangani"}, "type": "Feature"}, {"geometry": {"coordinates": [-87.61535, 41.893817999999996], "type": "Point"}, "properties": {"marker-symbol": "circle-15", "title": "W Chicago Lakeshore"}, "type": "Feature"}, {"geometry": {"coordinates": [-119.80156000000001, 39.49749], "type": "Point"}, "properties": {"marker-symbol": "circle-15", "title": "Spa Toscana at Peppermill"}, "type": "Feature"}, {"geometry": {"coordinates": [-122.40933999999999, 37.788340000000005], "type": "Point"}, "properties": {"marker-symbol": "circle-15", "title": "Farallon"}, "type": "Feature"}, {"geometry": {"coordinates": [-77.22535, 38.92455], "type": "Point"}, "properties": {"marker-symbol": "circle-15", "title": "The Ritz-Carlton, Tysons Corner"}, "type": "Feature"}, {"geometry": {"coordinates": [-73.99085, 40.72775], "type": "Point"}, "properties": {"marker-symbol": "circle-15", "title": "The Standard, East Village"}, "type": "Feature"}, {"geometry": {"coordinates": [-73.96401, 40.774390000000004], "type": "Point"}, "properties": {"marker-symbol": "circle-15", "title": "The Surrey"}, "type": "Feature"}, {"geometry": {"coordinates": [-122.34136000000001, 47.61057], "type": "Point"}, "properties": {"marker-symbol": "circle-15", "title": "Thompson Seattle"}, "type": "Feature"}, {"geometry": {"coordinates": [-80.09173, 32.6014], "type": "Point"}, "properties": {"marker-symbol": "circle-15", "title": "The Sanctuary Hotel at Kiawah Island Golf Resort"}, "type": "Feature"}, {"geometry": {"coordinates": [-73.95566600000001, 40.78477], "type": "Point"}, "properties": {"marker-symbol": "circle-15", "title": "Hotel Wales"}, "type": "Feature"}, {"geometry": {"coordinates": [-75.17011, 39.956955], "type": "Point"}, "properties": {"marker-symbol": "circle-15", "title": "The Logan Philadelphia, Curio Collection by Hilton"}, "type": "Feature"}, {"geometry": {"coordinates": [-115.164505, 36.12825], "type": "Point"}, "properties": {"marker-symbol": "circle-15", "title": "Encore At Wynn Las Vegas"}, "type": "Feature"}, {"geometry": {"coordinates": [-118.26687, 34.045486], "type": "Point"}, "properties": {"marker-symbol": "circle-15", "title": "The Ritz-Carlton, Los Angeles"}, "type": "Feature"}, {"geometry": {"coordinates": [-73.98261, 40.761528000000006], "type": "Point"}, "properties": {"marker-symbol": "circle-15", "title": "The Michelangelo Hotel"}, "type": "Feature"}, {"geometry": {"coordinates": [-73.984726, 40.752014], "type": "Point"}, "properties": {"marker-symbol": "circle-15", "title": "Archer Hotel New York"}, "type": "Feature"}, {"geometry": {"coordinates": [-80.12256, 25.81964], "type": "Point"}, "properties": {"marker-symbol": "circle-15", "title": "Eden Roc Miami Beach Resort"}, "type": "Feature"}, {"geometry": {"coordinates": [-118.37704, 34.087070000000004], "type": "Point"}, "properties": {"marker-symbol": "circle-15", "title": "Nobu West Hollywood"}, "type": "Feature"}, {"geometry": {"coordinates": [-74.00419000000001, 40.742268], "type": "Point"}, "properties": {"marker-symbol": "circle-15", "title": "TAO Downtown"}, "type": "Feature"}, {"geometry": {"coordinates": [-80.12286999999999, 25.819271], "type": "Point"}, "properties": {"marker-symbol": "circle-15", "title": "Nobu"}, "type": "Feature"}, {"geometry": {"coordinates": [-73.98331999999999, 40.75837], "type": "Point"}, "properties": {"marker-symbol": "circle-15", "title": "Sanctuary Hotel New York"}, "type": "Feature"}, {"geometry": {"coordinates": [-159.49707, 22.22063], "type": "Point"}, "properties": {"marker-symbol": "circle-15", "title": "St. Regis Princeville Resort"}, "type": "Feature"}, {"geometry": {"coordinates": [-156.44273, 20.692587], "type": "Point"}, "properties": {"marker-symbol": "circle-15", "title": "Morimoto"}, "type": "Feature"}, {"geometry": {"coordinates": [-81.09346, 32.081512], "type": "Point"}, "properties": {"marker-symbol": "circle-15", "title": "Cotton Sail Hotel"}, "type": "Feature"}, {"geometry": {"coordinates": [-73.99586500000001, 40.764584], "type": "Point"}, "properties": {"marker-symbol": "circle-15", "title": "Press Lounge"}, "type": "Feature"}, {"geometry": {"coordinates": [-84.46515, 33.88462], "type": "Point"}, "properties": {"marker-symbol": "circle-15", "title": "Renaissance Atlanta Waverly Hotel & Convention Center"}, "type": "Feature"}, {"geometry": {"coordinates": [-118.266594, 34.045265], "type": "Point"}, "properties": {"marker-symbol": "circle-15", "title": "WP24"}, "type": "Feature"}, {"geometry": {"coordinates": [-115.16656499999999, 36.126087], "type": "Point"}, "properties": {"marker-symbol": "circle-15", "title": "Mizumi"}, "type": "Feature"}, {"geometry": {"coordinates": [-80.13024, 25.792131], "type": "Point"}, "properties": {"marker-symbol": "circle-15", "title": "Gale South Beach"}, "type": "Feature"}, {"geometry": {"coordinates": [-122.33774, 47.613194], "type": "Point"}, "properties": {"marker-symbol": "circle-15", "title": "The Westin Seattle"}, "type": "Feature"}, {"geometry": {"coordinates": [-80.12182, 25.817474], "type": "Point"}, "properties": {"marker-symbol": "circle-15", "title": "Lapis Spa"}, "type": "Feature"}, {"geometry": {"coordinates": [-122.40551, 37.785340000000005], "type": "Point"}, "properties": {"marker-symbol": "circle-15", "title": "Hotel Zelos San Francisco"}, "type": "Feature"}, {"geometry": {"coordinates": [-80.14010999999999, 25.79072], "type": "Point"}, "properties": {"marker-symbol": "circle-15", "title": "Juvia"}, "type": "Feature"}, {"geometry": {"coordinates": [-73.935745, 40.754745], "type": "Point"}, "properties": {"marker-symbol": "circle-15", "title": "Boro Hotel"}, "type": "Feature"}, {"geometry": {"coordinates": [-95.36088000000001, 29.762596000000002], "type": "Point"}, "properties": {"marker-symbol": "circle-15", "title": "Hotel ICON, Autograph Collection"}, "type": "Feature"}, {"geometry": {"coordinates": [-122.411575, 37.786204999999995], "type": "Point"}, "properties": {"marker-symbol": "circle-15", "title": "Serrano Hotel"}, "type": "Feature"}, {"geometry": {"coordinates": [-73.982376, 40.755398], "type": "Point"}, "properties": {"marker-symbol": "circle-15", "title": "Royalton New York Hotel"}, "type": "Feature"}, {"geometry": {"coordinates": [-80.129196, 25.798911999999998], "type": "Point"}, "properties": {"marker-symbol": "circle-15", "title": "Villa Azur Restaurant & Lounge"}, "type": "Feature"}, {"geometry": {"coordinates": [-115.16593, 36.127346], "type": "Point"}, "properties": {"marker-symbol": "circle-15", "title": "Andrea's"}, "type": "Feature"}, {"geometry": {"coordinates": [-73.9892, 40.744003], "type": "Point"}, "properties": {"marker-symbol": "circle-15", "title": "Flatiron Hotel"}, "type": "Feature"}, {"geometry": {"coordinates": [-81.38696999999999, 24.665003], "type": "Point"}, "properties": {"marker-symbol": "circle-15", "title": "Little Palm Island Resort & Spa, A Noble House Resort"}, "type": "Feature"}, {"geometry": {"coordinates": [-122.339134, 47.607418], "type": "Point"}, "properties": {"marker-symbol": "circle-15", "title": "Four Seasons Hotel Seattle"}, "type": "Feature"}, {"geometry": {"coordinates": [-80.1913, 25.760609], "type": "Point"}, "properties": {"marker-symbol": "circle-15", "title": "Conrad Miami"}, "type": "Feature"}, {"geometry": {"coordinates": [-80.19139, 25.758606], "type": "Point"}, "properties": {"marker-symbol": "circle-15", "title": "Four Seasons Hotel Miami"}, "type": "Feature"}, {"geometry": {"coordinates": [-117.929955, 33.609924], "type": "Point"}, "properties": {"marker-symbol": "circle-15", "title": "Newport Beach Hotel"}, "type": "Feature"}, {"geometry": {"coordinates": [-106.82026, 39.190647], "type": "Point"}, "properties": {"marker-symbol": "circle-15", "title": "Matsuhisa-Aspen"}, "type": "Feature"}, {"geometry": {"coordinates": [-80.12209, 25.815887], "type": "Point"}, "properties": {"marker-symbol": "circle-15", "title": "Soho Beach House"}, "type": "Feature"}, {"geometry": {"coordinates": [-115.17525, 36.113372999999996], "type": "Point"}, "properties": {"marker-symbol": "circle-15", "title": "Le Cirque"}, "type": "Feature"}, {"geometry": {"coordinates": [-96.804276, 32.79463], "type": "Point"}, "properties": {"marker-symbol": "circle-15", "title": "Nobu"}, "type": "Feature"}, {"geometry": {"coordinates": [-155.99193, 19.828545000000002], "type": "Point"}, "properties": {"marker-symbol": "circle-15", "title": "Four Seasons Resort Hualalai"}, "type": "Feature"}, {"geometry": {"coordinates": [-118.49668, 34.01311], "type": "Point"}, "properties": {"marker-symbol": "circle-15", "title": "Ocean View Hotel"}, "type": "Feature"}, {"geometry": {"coordinates": [-121.62303999999999, 37.066086], "type": "Point"}, "properties": {"marker-symbol": "circle-15", "title": "Rosewood CordeValle"}, "type": "Feature"}, {"geometry": {"coordinates": [-74.00492, 40.719383], "type": "Point"}, "properties": {"marker-symbol": "circle-15", "title": "The Roxy Hotel Tribeca"}, "type": "Feature"}, {"geometry": {"coordinates": [-73.98881999999999, 40.73901], "type": "Point"}, "properties": {"marker-symbol": "circle-15", "title": "SUGARFISH by sushi nozawa"}, "type": "Feature"}, {"geometry": {"coordinates": [-119.92069, 34.435215], "type": "Point"}, "properties": {"marker-symbol": "circle-15", "title": "Bacara Resort & Spa"}, "type": "Feature"}, {"geometry": {"coordinates": [-73.998726, 40.732494], "type": "Point"}, "properties": {"marker-symbol": "circle-15", "title": "Washington Square Hotel"}, "type": "Feature"}, {"geometry": {"coordinates": [-122.40836000000002, 37.786674], "type": "Point"}, "properties": {"marker-symbol": "circle-15", "title": "Villa Florence"}, "type": "Feature"}, {"geometry": {"coordinates": [-74.01019000000001, 40.71455], "type": "Point"}, "properties": {"marker-symbol": "circle-15", "title": "Gunbae Tribeca"}, "type": "Feature"}, {"geometry": {"coordinates": [-86.77726, 36.159973], "type": "Point"}, "properties": {"marker-symbol": "circle-15", "title": "Hilton Nashville Downtown"}, "type": "Feature"}, {"geometry": {"coordinates": [-84.38101, 33.83875], "type": "Point"}, "properties": {"marker-symbol": "circle-15", "title": "Umi Sushi Buckhead"}, "type": "Feature"}, {"geometry": {"coordinates": [-119.95527, 38.94488], "type": "Point"}, "properties": {"marker-symbol": "circle-15", "title": "BioSpirit Day Spa"}, "type": "Feature"}, {"geometry": {"coordinates": [-73.971405, 40.756287], "type": "Point"}, "properties": {"marker-symbol": "circle-15", "title": "The Kimberly Hotel"}, "type": "Feature"}, {"geometry": {"coordinates": [-118.26675, 34.045113], "type": "Point"}, "properties": {"marker-symbol": "circle-15", "title": "JW Marriott Los Angeles L.A. LIVE"}, "type": "Feature"}, {"geometry": {"coordinates": [-74.009865, 40.719822], "type": "Point"}, "properties": {"marker-symbol": "circle-15", "title": "Greenwich Hotel"}, "type": "Feature"}, {"geometry": {"coordinates": [-73.9831, 40.742767], "type": "Point"}, "properties": {"marker-symbol": "circle-15", "title": "Park South Hotel"}, "type": "Feature"}, {"geometry": {"coordinates": [-73.98443, 40.757267], "type": "Point"}, "properties": {"marker-symbol": "circle-15", "title": "Night Theater District"}, "type": "Feature"}, {"geometry": {"coordinates": [-73.994644, 40.719475], "type": "Point"}, "properties": {"marker-symbol": "circle-15", "title": "Sohotel"}, "type": "Feature"}, {"geometry": {"coordinates": [-70.2563, 43.658844], "type": "Point"}, "properties": {"marker-symbol": "circle-15", "title": "The Press Hotel, Autograph Collection"}, "type": "Feature"}, {"geometry": {"coordinates": [-122.42201000000001, 37.7982], "type": "Point"}, "properties": {"marker-symbol": "circle-15", "title": "La Folie"}, "type": "Feature"}, {"geometry": {"coordinates": [-74.00026, 40.719254], "type": "Point"}, "properties": {"marker-symbol": "circle-15", "title": "11 Howard"}, "type": "Feature"}, {"geometry": {"coordinates": [-79.551674, 39.806329999999996], "type": "Point"}, "properties": {"marker-symbol": "circle-15", "title": "Woodlands Spa"}, "type": "Feature"}, {"geometry": {"coordinates": [-73.97561, 40.75935], "type": "Point"}, "properties": {"marker-symbol": "circle-15", "title": "Fig & Olive Fifth Avenue"}, "type": "Feature"}, {"geometry": {"coordinates": [-73.98239000000001, 40.746838000000004], "type": "Point"}, "properties": {"marker-symbol": "circle-15", "title": "Hilton Garden Inn New York/Midtown Park Ave"}, "type": "Feature"}, {"geometry": {"coordinates": [-74.00899, 40.7187], "type": "Point"}, "properties": {"marker-symbol": "circle-15", "title": "Jungsik"}, "type": "Feature"}, {"geometry": {"coordinates": [-73.975365, 40.758076], "type": "Point"}, "properties": {"marker-symbol": "circle-15", "title": "The Towers at Lotte New York Palace"}, "type": "Feature"}, {"geometry": {"coordinates": [-122.41231499999999, 37.787987], "type": "Point"}, "properties": {"marker-symbol": "circle-15", "title": "Andrews Hotel"}, "type": "Feature"}, {"geometry": {"coordinates": [-73.98711, 40.735966], "type": "Point"}, "properties": {"marker-symbol": "circle-15", "title": "The Inn at Irving Place"}, "type": "Feature"}, {"geometry": {"coordinates": [-73.79639, 42.725640000000006], "type": "Point"}, "properties": {"marker-symbol": "circle-15", "title": "Complexions Spa for Beauty & Wellness"}, "type": "Feature"}, {"geometry": {"coordinates": [-87.63134000000001, 41.890694], "type": "Point"}, "properties": {"marker-symbol": "circle-15", "title": "Roka Akor"}, "type": "Feature"}, {"geometry": {"coordinates": [-120.12849399999999, 39.26801], "type": "Point"}, "properties": {"marker-symbol": "circle-15", "title": "The Ritz-Carlton, Lake Tahoe"}, "type": "Feature"}, {"geometry": {"coordinates": [-117.16703000000001, 32.716007], "type": "Point"}, "properties": {"marker-symbol": "circle-15", "title": "The Westin San Diego"}, "type": "Feature"}, {"geometry": {"coordinates": [-87.62826, 41.905945], "type": "Point"}, "properties": {"marker-symbol": "circle-15", "title": "PUBLIC Chicago"}, "type": "Feature"}, {"geometry": {"coordinates": [-115.17726, 36.107067], "type": "Point"}, "properties": {"marker-symbol": "circle-15", "title": "Jean Georges Steakhouse"}, "type": "Feature"}, {"geometry": {"coordinates": [-111.92416399999999, 33.501490000000004], "type": "Point"}, "properties": {"marker-symbol": "circle-15", "title": "W Scottsdale"}, "type": "Feature"}, {"geometry": {"coordinates": [-80.12966, 25.786587], "type": "Point"}, "properties": {"marker-symbol": "circle-15", "title": "The Betsy - South Beach"}, "type": "Feature"}, {"geometry": {"coordinates": [-96.83033, 32.85154], "type": "Point"}, "properties": {"marker-symbol": "circle-15", "title": "Zio Cecio"}, "type": "Feature"}, {"geometry": {"coordinates": [-122.41435, 37.79326], "type": "Point"}, "properties": {"marker-symbol": "circle-15", "title": "Keiko a Nob Hill"}, "type": "Feature"}, {"geometry": {"coordinates": [-80.12665, 25.799416], "type": "Point"}, "properties": {"marker-symbol": "circle-15", "title": "1 Hotel South Beach"}, "type": "Feature"}, {"geometry": {"coordinates": [-156.65385, 21.000809], "type": "Point"}, "properties": {"marker-symbol": "circle-15", "title": "The Ritz-Carlton Spa, Kapalua"}, "type": "Feature"}, {"geometry": {"coordinates": [-92.3288, 38.950866999999995], "type": "Point"}, "properties": {"marker-symbol": "circle-15", "title": "The Tiger Hotel"}, "type": "Feature"}, {"geometry": {"coordinates": [-118.37731000000001, 34.092213], "type": "Point"}, "properties": {"marker-symbol": "circle-15", "title": "Sunset Marquis"}, "type": "Feature"}, {"geometry": {"coordinates": [-75.16221, 39.949356], "type": "Point"}, "properties": {"marker-symbol": "circle-15", "title": "Double Knot"}, "type": "Feature"}, {"geometry": {"coordinates": [-73.98704000000001, 40.74129], "type": "Point"}, "properties": {"marker-symbol": "circle-15", "title": "The New York EDITION"}, "type": "Feature"}, {"geometry": {"coordinates": [-73.9763, 40.763657], "type": "Point"}, "properties": {"marker-symbol": "circle-15", "title": "Nobu 57"}, "type": "Feature"}, {"geometry": {"coordinates": [-73.99865, 40.72493], "type": "Point"}, "properties": {"marker-symbol": "circle-15", "title": "The Mercer Hotel"}, "type": "Feature"}, {"geometry": {"coordinates": [-83.919624, 35.964684000000005], "type": "Point"}, "properties": {"marker-symbol": "circle-15", "title": "The Oliver Hotel"}, "type": "Feature"}, {"geometry": {"coordinates": [-87.62761, 41.886093], "type": "Point"}, "properties": {"marker-symbol": "circle-15", "title": "theWit - A DoubleTree by Hilton"}, "type": "Feature"}, {"geometry": {"coordinates": [-74.0068, 40.711315], "type": "Point"}, "properties": {"marker-symbol": "circle-15", "title": "The Beekman, A Thompson Hotel"}, "type": "Feature"}, {"geometry": {"coordinates": [-115.16791, 36.12396], "type": "Point"}, "properties": {"marker-symbol": "circle-15", "title": "The Palazzo Resort Hotel Casino"}, "type": "Feature"}, {"geometry": {"coordinates": [-75.15592, 39.93953], "type": "Point"}, "properties": {"marker-symbol": "circle-15", "title": "Paloma Mexican Haute Cuisine"}, "type": "Feature"}, {"geometry": {"coordinates": [-115.17641, 36.107258], "type": "Point"}, "properties": {"marker-symbol": "circle-15", "title": "Javier's"}, "type": "Feature"}, {"geometry": {"coordinates": [-104.99803, 39.746520000000004], "type": "Point"}, "properties": {"marker-symbol": "circle-15", "title": "Four Seasons Hotel Denver"}, "type": "Feature"}, {"geometry": {"coordinates": [-115.17195, 36.12104], "type": "Point"}, "properties": {"marker-symbol": "circle-15", "title": "Tao Restaurant and Nightclub"}, "type": "Feature"}, {"geometry": {"coordinates": [-106.37768999999999, 39.641575], "type": "Point"}, "properties": {"marker-symbol": "circle-15", "title": "Sonnenalp"}, "type": "Feature"}, {"geometry": {"coordinates": [-80.12339, 25.89892], "type": "Point"}, "properties": {"marker-symbol": "circle-15", "title": "The Ritz-Carlton Bal Harbour, Miami"}, "type": "Feature"}, {"geometry": {"coordinates": [-81.80887, 26.390282], "type": "Point"}, "properties": {"marker-symbol": "circle-15", "title": "Angelina's Ristorante"}, "type": "Feature"}, {"geometry": {"coordinates": [0.0, 0.0], "type": "Point"}, "properties": {"marker-symbol": "circle-15", "title": "Eating With Ziggy Tours"}, "type": "Feature"}, {"geometry": {"coordinates": [-118.41299, 34.066340000000004], "type": "Point"}, "properties": {"marker-symbol": "circle-15", "title": "Trader Vic's Lounge - Beverly Hilton"}, "type": "Feature"}, {"geometry": {"coordinates": [-118.41299, 34.066340000000004], "type": "Point"}, "properties": {"marker-symbol": "circle-15", "title": "Trader Vic's Lounge - Beverly Hilton"}, "type": "Feature"}, {"geometry": {"coordinates": [-96.801834, 32.785744], "type": "Point"}, "properties": {"marker-symbol": "circle-15", "title": "The Fairmont Dallas"}, "type": "Feature"}, {"geometry": {"coordinates": [-122.40968000000001, 37.787290000000006], "type": "Point"}, "properties": {"marker-symbol": "circle-15", "title": "Hotel G San Francisco"}, "type": "Feature"}, {"geometry": {"coordinates": [-80.1896, 25.770468], "type": "Point"}, "properties": {"marker-symbol": "circle-15", "title": "Zuma"}, "type": "Feature"}, {"geometry": {"coordinates": [-73.98060600000001, 40.782127], "type": "Point"}, "properties": {"marker-symbol": "circle-15", "title": "NYLO New York City"}, "type": "Feature"}, {"geometry": {"coordinates": [-121.493866, 38.580154], "type": "Point"}, "properties": {"marker-symbol": "circle-15", "title": "The Citizen Hotel, Autograph Collection"}, "type": "Feature"}, {"geometry": {"coordinates": [-117.84253000000001, 33.588634000000006], "type": "Point"}, "properties": {"marker-symbol": "circle-15", "title": "The Resort at Pelican Hill"}, "type": "Feature"}, {"geometry": {"coordinates": [-80.12894, 25.79213], "type": "Point"}, "properties": {"marker-symbol": "circle-15", "title": "Delano South Beach Hotel"}, "type": "Feature"}, {"geometry": {"coordinates": [-71.063225, 42.353058000000004], "type": "Point"}, "properties": {"marker-symbol": "circle-15", "title": "The Ritz-Carlton, Boston"}, "type": "Feature"}, {"geometry": {"coordinates": [-71.050415, 42.349540000000005], "type": "Point"}, "properties": {"marker-symbol": "circle-15", "title": "Bastille Kitchen"}, "type": "Feature"}, {"geometry": {"coordinates": [-73.97756, 40.763884999999995], "type": "Point"}, "properties": {"marker-symbol": "circle-15", "title": "Zibetto Espresso Bar"}, "type": "Feature"}, {"geometry": {"coordinates": [-122.88341499999999, 38.489952], "type": "Point"}, "properties": {"marker-symbol": "circle-15", "title": "Farmhouse Inn & Restaurant"}, "type": "Feature"}, {"geometry": {"coordinates": [-74.00533, 40.725468], "type": "Point"}, "properties": {"marker-symbol": "circle-15", "title": "Trump SoHo New York"}, "type": "Feature"}, {"geometry": {"coordinates": [-77.072784, 38.866946999999996], "type": "Point"}, "properties": {"marker-symbol": "circle-15", "title": "Sheraton Pentagon City Hotel"}, "type": "Feature"}, {"geometry": {"coordinates": [-96.80417, 32.79469], "type": "Point"}, "properties": {"marker-symbol": "circle-15", "title": "Hotel Crescent Court"}, "type": "Feature"}, {"geometry": {"coordinates": [-115.28838, 36.17445], "type": "Point"}, "properties": {"marker-symbol": "circle-15", "title": "JW Marriott Las Vegas Resort - Spa Aquae"}, "type": "Feature"}, {"geometry": {"coordinates": [-122.15880600000001, 37.44787], "type": "Point"}, "properties": {"marker-symbol": "circle-15", "title": "Garden Court Hotel"}, "type": "Feature"}, {"geometry": {"coordinates": [-118.3283, 34.101215], "type": "Point"}, "properties": {"marker-symbol": "circle-15", "title": "Beso"}, "type": "Feature"}, {"geometry": {"coordinates": [-74.00391, 40.742447], "type": "Point"}, "properties": {"marker-symbol": "circle-15", "title": "The Maritime Hotel"}, "type": "Feature"}, {"geometry": {"coordinates": [-122.41151, 37.78694], "type": "Point"}, "properties": {"marker-symbol": "circle-15", "title": "The Marker San Francisco, A Joie de Vivre Hotel"}, "type": "Feature"}, {"geometry": {"coordinates": [-80.126144, 25.800396], "type": "Point"}, "properties": {"marker-symbol": "circle-15", "title": "COMO Metropolitan Miami Beach"}, "type": "Feature"}, {"geometry": {"coordinates": [-122.400475, 37.78545], "type": "Point"}, "properties": {"marker-symbol": "circle-15", "title": "W San Francisco"}, "type": "Feature"}, {"geometry": {"coordinates": [-80.13061, 25.793136999999998], "type": "Point"}, "properties": {"marker-symbol": "circle-15", "title": "Ola at the Sanctuary"}, "type": "Feature"}, {"geometry": {"coordinates": [-111.91891000000001, 33.645016], "type": "Point"}, "properties": {"marker-symbol": "circle-15", "title": "La Hacienda"}, "type": "Feature"}, {"geometry": {"coordinates": [-71.078255, 42.34879], "type": "Point"}, "properties": {"marker-symbol": "circle-15", "title": "Sorellina"}, "type": "Feature"}, {"geometry": {"coordinates": [-71.078255, 42.34879], "type": "Point"}, "properties": {"marker-symbol": "circle-15", "title": "Sorellina"}, "type": "Feature"}, {"geometry": {"coordinates": [-87.62746, 41.89971], "type": "Point"}, "properties": {"marker-symbol": "circle-15", "title": "Waldorf Astoria Chicago"}, "type": "Feature"}, {"geometry": {"coordinates": [-117.71528, 33.48237], "type": "Point"}, "properties": {"marker-symbol": "circle-15", "title": "Monarch Beach Resort"}, "type": "Feature"}, {"geometry": {"coordinates": [-73.99039499999999, 40.73115], "type": "Point"}, "properties": {"marker-symbol": "circle-15", "title": "Tim Ho Wan"}, "type": "Feature"}, {"geometry": {"coordinates": [-122.40733, 37.790184], "type": "Point"}, "properties": {"marker-symbol": "circle-15", "title": "Bouche"}, "type": "Feature"}, {"geometry": {"coordinates": [-73.98266600000001, 40.724154999999996], "type": "Point"}, "properties": {"marker-symbol": "circle-15", "title": "Tuome"}, "type": "Feature"}, {"geometry": {"coordinates": [-122.393394, 37.793667], "type": "Point"}, "properties": {"marker-symbol": "circle-15", "title": "Hotel Vitale, a Joie de Vivre hotel"}, "type": "Feature"}, {"geometry": {"coordinates": [-73.25296999999999, 42.452824], "type": "Point"}, "properties": {"marker-symbol": "circle-15", "title": "Hotel on North"}, "type": "Feature"}, {"geometry": {"coordinates": [-80.12895999999999, 25.79419], "type": "Point"}, "properties": {"marker-symbol": "circle-15", "title": "Shelborne South Beach"}, "type": "Feature"}, {"geometry": {"coordinates": [-122.68463, 45.526405], "type": "Point"}, "properties": {"marker-symbol": "circle-15", "title": "Andina Restaurant"}, "type": "Feature"}, {"geometry": {"coordinates": [-118.25143999999999, 34.048813], "type": "Point"}, "properties": {"marker-symbol": "circle-15", "title": "Perch"}, "type": "Feature"}, {"geometry": {"coordinates": [-80.12079, 25.93655], "type": "Point"}, "properties": {"marker-symbol": "circle-15", "title": "Sole on the Ocean"}, "type": "Feature"}, {"geometry": {"coordinates": [-73.99215, 40.736305], "type": "Point"}, "properties": {"marker-symbol": "circle-15", "title": "15 East Restaurant"}, "type": "Feature"}, {"geometry": {"coordinates": [-80.130455, 25.792599], "type": "Point"}, "properties": {"marker-symbol": "circle-15", "title": "Pied a Terre"}, "type": "Feature"}, {"geometry": {"coordinates": [-122.39712, 37.78553], "type": "Point"}, "properties": {"marker-symbol": "circle-15", "title": "Fly Trap"}, "type": "Feature"}, {"geometry": {"coordinates": [-104.949646, 39.717663], "type": "Point"}, "properties": {"marker-symbol": "circle-15", "title": "Matsuhisa Denver"}, "type": "Feature"}, {"geometry": {"coordinates": [-84.392204, 33.756886], "type": "Point"}, "properties": {"marker-symbol": "circle-15", "title": "Glenn Hotel, Autograph Collection"}, "type": "Feature"}, {"geometry": {"coordinates": [-122.33689, 47.604877], "type": "Point"}, "properties": {"marker-symbol": "circle-15", "title": "Kimpton Alexis Hotel"}, "type": "Feature"}, {"geometry": {"coordinates": [-78.76448, 35.82966], "type": "Point"}, "properties": {"marker-symbol": "circle-15", "title": "The Umstead Spa"}, "type": "Feature"}, {"geometry": {"coordinates": [-74.00719000000001, 40.743023], "type": "Point"}, "properties": {"marker-symbol": "circle-15", "title": "Morimoto"}, "type": "Feature"}, {"geometry": {"coordinates": [-115.17223, 36.101395000000004], "type": "Point"}, "properties": {"marker-symbol": "circle-15", "title": "Hakkasan Restaurant"}, "type": "Feature"}, {"geometry": {"coordinates": [-96.80747, 32.79763], "type": "Point"}, "properties": {"marker-symbol": "circle-15", "title": "Le Meridien Dallas, The Stoneleigh"}, "type": "Feature"}, {"geometry": {"coordinates": [-80.1914, 25.762634], "type": "Point"}, "properties": {"marker-symbol": "circle-15", "title": "JW Marriott Miami"}, "type": "Feature"}, {"geometry": {"coordinates": [-71.95491, 41.036404], "type": "Point"}, "properties": {"marker-symbol": "circle-15", "title": "Sole East Resort"}, "type": "Feature"}, {"geometry": {"coordinates": [-122.03516, 37.2565], "type": "Point"}, "properties": {"marker-symbol": "circle-15", "title": "The Plumed Horse"}, "type": "Feature"}, {"geometry": {"coordinates": [-159.43974, 21.8753], "type": "Point"}, "properties": {"marker-symbol": "circle-15", "title": "Stevenson's Library"}, "type": "Feature"}, {"geometry": {"coordinates": [-80.12045, 25.940872], "type": "Point"}, "properties": {"marker-symbol": "circle-15", "title": "Acqualina Resort & Spa on the Beach"}, "type": "Feature"}, {"geometry": {"coordinates": [-75.97979000000001, 36.85268], "type": "Point"}, "properties": {"marker-symbol": "circle-15", "title": "Beach Spa Bed and Breakfast"}, "type": "Feature"}, {"geometry": {"coordinates": [-122.47464, 38.559470000000005], "type": "Point"}, "properties": {"marker-symbol": "circle-15", "title": "Viader Vineyards & Winery"}, "type": "Feature"}, {"geometry": {"coordinates": [-117.18796999999999, 32.724342], "type": "Point"}, "properties": {"marker-symbol": "circle-15", "title": "Coasterra Restaurant"}, "type": "Feature"}, {"geometry": {"coordinates": [-156.65405, 21.00112], "type": "Point"}, "properties": {"marker-symbol": "circle-15", "title": "The Ritz-Carlton, Kapalua"}, "type": "Feature"}, {"geometry": {"coordinates": [-97.82949, 30.301094], "type": "Point"}, "properties": {"marker-symbol": "circle-15", "title": "Hotel Granduca Austin"}, "type": "Feature"}, {"geometry": {"coordinates": [-73.96516, 40.760292], "type": "Point"}, "properties": {"marker-symbol": "circle-15", "title": "Felidia"}, "type": "Feature"}, {"geometry": {"coordinates": [-157.82776, 21.279851999999998], "type": "Point"}, "properties": {"marker-symbol": "circle-15", "title": "Shoreline Hotel Waikiki"}, "type": "Feature"}, {"geometry": {"coordinates": [-122.33076000000001, 47.606590000000004], "type": "Point"}, "properties": {"marker-symbol": "circle-15", "title": "Renaissance Seattle Hotel"}, "type": "Feature"}, {"geometry": {"coordinates": [-74.44411, 40.49452], "type": "Point"}, "properties": {"marker-symbol": "circle-15", "title": "Hotoke Restaurant"}, "type": "Feature"}, {"geometry": {"coordinates": [-87.62885, 41.888529999999996], "type": "Point"}, "properties": {"marker-symbol": "circle-15", "title": "Hotel Chicago Downtown, Autograph Collection"}, "type": "Feature"}, {"geometry": {"coordinates": [-121.94621000000001, 36.569576], "type": "Point"}, "properties": {"marker-symbol": "circle-15", "title": "Casa Palmero"}, "type": "Feature"}, {"geometry": {"coordinates": [-96.80776999999999, 32.80916], "type": "Point"}, "properties": {"marker-symbol": "circle-15", "title": "Steel Restaurant & Lounge"}, "type": "Feature"}, {"geometry": {"coordinates": [-81.80142, 24.556774], "type": "Point"}, "properties": {"marker-symbol": "circle-15", "title": "Marquesa Hotel"}, "type": "Feature"}, {"geometry": {"coordinates": [-74.00095, 40.735890000000005], "type": "Point"}, "properties": {"marker-symbol": "circle-15", "title": "Yerba Buena Perry"}, "type": "Feature"}, {"geometry": {"coordinates": [-73.96443000000001, 40.7587], "type": "Point"}, "properties": {"marker-symbol": "circle-15", "title": "Mr. Chow - 57th"}, "type": "Feature"}, {"geometry": {"coordinates": [-71.05490999999999, 42.363136], "type": "Point"}, "properties": {"marker-symbol": "circle-15", "title": "Bricco"}, "type": "Feature"}, {"geometry": {"coordinates": [-111.9265, 33.49664], "type": "Point"}, "properties": {"marker-symbol": "circle-15", "title": "Second Story Liquor Bar"}, "type": "Feature"}, {"geometry": {"coordinates": [-77.02778, 38.89433], "type": "Point"}, "properties": {"marker-symbol": "circle-15", "title": "Trump International Hotel Washington D.C."}, "type": "Feature"}, {"geometry": {"coordinates": [-80.033966, 26.714775], "type": "Point"}, "properties": {"marker-symbol": "circle-15", "title": "The Breakers"}, "type": "Feature"}, {"geometry": {"coordinates": [-122.45336, 38.48925], "type": "Point"}, "properties": {"marker-symbol": "circle-15", "title": "HALL St. Helena"}, "type": "Feature"}, {"geometry": {"coordinates": [-74.00613, 40.727055], "type": "Point"}, "properties": {"marker-symbol": "circle-15", "title": "Four Points by Sheraton Manhattan SoHo Village"}, "type": "Feature"}, {"geometry": {"coordinates": [-81.8016, 24.560719], "type": "Point"}, "properties": {"marker-symbol": "circle-15", "title": "The Marker Waterfront Resort"}, "type": "Feature"}, {"geometry": {"coordinates": [-80.103874, 26.128609], "type": "Point"}, "properties": {"marker-symbol": "circle-15", "title": "Steak 954"}, "type": "Feature"}, {"geometry": {"coordinates": [-73.992836, 40.75674], "type": "Point"}, "properties": {"marker-symbol": "circle-15", "title": "Distrikt Hotel"}, "type": "Feature"}, {"geometry": {"coordinates": [-96.95365, 32.871165999999995], "type": "Point"}, "properties": {"marker-symbol": "circle-15", "title": "Four Seasons Resort and Club Dallas at Las Colinas"}, "type": "Feature"}, {"geometry": {"coordinates": [-115.175095, 36.113514], "type": "Point"}, "properties": {"marker-symbol": "circle-15", "title": "Yellowtail Restaurant & Lounge"}, "type": "Feature"}, {"geometry": {"coordinates": [-80.149086, 25.79175], "type": "Point"}, "properties": {"marker-symbol": "circle-15", "title": "The Standard, Miami"}, "type": "Feature"}, {"geometry": {"coordinates": [-70.25559, 43.655514000000004], "type": "Point"}, "properties": {"marker-symbol": "circle-15", "title": "Miyake"}, "type": "Feature"}, {"geometry": {"coordinates": [-73.98607, 40.726738], "type": "Point"}, "properties": {"marker-symbol": "circle-15", "title": "Empellon Cocina"}, "type": "Feature"}, {"geometry": {"coordinates": [-77.03334, 38.905357], "type": "Point"}, "properties": {"marker-symbol": "circle-15", "title": "The Westin Washington, D.C. City Center"}, "type": "Feature"}, {"geometry": {"coordinates": [-105.88949, 35.717834], "type": "Point"}, "properties": {"marker-symbol": "circle-15", "title": "Izanami"}, "type": "Feature"}, {"geometry": {"coordinates": [-80.12824, 25.794458], "type": "Point"}, "properties": {"marker-symbol": "circle-15", "title": "Nautilus - a Sixty Hotel"}, "type": "Feature"}, {"geometry": {"coordinates": [-80.123215, 25.807178], "type": "Point"}, "properties": {"marker-symbol": "circle-15", "title": "Faena Hotel Miami Beach"}, "type": "Feature"}, {"geometry": {"coordinates": [-122.522705, 38.558075], "type": "Point"}, "properties": {"marker-symbol": "circle-15", "title": "Larkmead Country Inn"}, "type": "Feature"}, {"geometry": {"coordinates": [-157.83171000000002, 21.295204000000002], "type": "Point"}, "properties": {"marker-symbol": "circle-15", "title": "Alan Wong's Restaurant"}, "type": "Feature"}, {"geometry": {"coordinates": [-79.93456, 32.787804], "type": "Point"}, "properties": {"marker-symbol": "circle-15", "title": "The Dewberry Charleston"}, "type": "Feature"}, {"geometry": {"coordinates": [-73.98996, 40.719359999999995], "type": "Point"}, "properties": {"marker-symbol": "circle-15", "title": "Sago Hotel"}, "type": "Feature"}, {"geometry": {"coordinates": [-76.60191, 39.28597], "type": "Point"}, "properties": {"marker-symbol": "circle-15", "title": "Aldo's Restaurant"}, "type": "Feature"}, {"geometry": {"coordinates": [-115.165825, 36.127712], "type": "Point"}, "properties": {"marker-symbol": "circle-15", "title": "Wing Lei"}, "type": "Feature"}, {"geometry": {"coordinates": [-80.30499, 37.786697], "type": "Point"}, "properties": {"marker-symbol": "circle-15", "title": "The Greenbrier"}, "type": "Feature"}, {"geometry": {"coordinates": [-90.1949, 38.6239], "type": "Point"}, "properties": {"marker-symbol": "circle-15", "title": "Westin St. Louis"}, "type": "Feature"}, {"geometry": {"coordinates": [-118.32543000000001, 34.100753999999995], "type": "Point"}, "properties": {"marker-symbol": "circle-15", "title": "W Hollywood"}, "type": "Feature"}, {"geometry": {"coordinates": [-78.15954599999999, 38.713604], "type": "Point"}, "properties": {"marker-symbol": "circle-15", "title": "The Inn at Little Washington"}, "type": "Feature"}, {"geometry": {"coordinates": [-74.00887, 40.719566], "type": "Point"}, "properties": {"marker-symbol": "circle-15", "title": "Nobu"}, "type": "Feature"}, {"geometry": {"coordinates": [-73.96944, 40.756640000000004], "type": "Point"}, "properties": {"marker-symbol": "circle-15", "title": "Hilton Garden Inn New York/Manhattan-Midtown East"}, "type": "Feature"}, {"geometry": {"coordinates": [-80.14246, 25.78193], "type": "Point"}, "properties": {"marker-symbol": "circle-15", "title": "Mondrian South Beach Hotel"}, "type": "Feature"}, {"geometry": {"coordinates": [-73.98376999999999, 40.757782], "type": "Point"}, "properties": {"marker-symbol": "circle-15", "title": "Kimpton Muse Hotel"}, "type": "Feature"}, {"geometry": {"coordinates": [-73.98549, 40.72898], "type": "Point"}, "properties": {"marker-symbol": "circle-15", "title": "Dieci"}, "type": "Feature"}, {"geometry": {"coordinates": [-70.2642, 43.65486], "type": "Point"}, "properties": {"marker-symbol": "circle-15", "title": "The Westin Portland Harborview"}, "type": "Feature"}, {"geometry": {"coordinates": [-115.16878999999999, 36.12066], "type": "Point"}, "properties": {"marker-symbol": "circle-15", "title": "Bouchon"}, "type": "Feature"}, {"geometry": {"coordinates": [-117.25783, 32.79952], "type": "Point"}, "properties": {"marker-symbol": "circle-15", "title": "Pacific Terrace Hotel"}, "type": "Feature"}, {"geometry": {"coordinates": [-122.67371000000001, 45.473459999999996], "type": "Point"}, "properties": {"marker-symbol": "circle-15", "title": "Fulton House Bed & Breakfast"}, "type": "Feature"}, {"geometry": {"coordinates": [-118.3418, 34.10137], "type": "Point"}, "properties": {"marker-symbol": "circle-15", "title": "The Hollywood Roosevelt"}, "type": "Feature"}, {"geometry": {"coordinates": [-80.43193000000001, 36.661774], "type": "Point"}, "properties": {"marker-symbol": "circle-15", "title": "Primland"}, "type": "Feature"}, {"geometry": {"coordinates": [-81.46996999999999, 28.431232], "type": "Point"}, "properties": {"marker-symbol": "circle-15", "title": "Cuba Libre Restaurant & Rum Bar - Orlando"}, "type": "Feature"}, {"geometry": {"coordinates": [-73.989235, 40.72698], "type": "Point"}, "properties": {"marker-symbol": "circle-15", "title": "Jewel Bako"}, "type": "Feature"}, {"geometry": {"coordinates": [-97.74043, 30.266481], "type": "Point"}, "properties": {"marker-symbol": "circle-15", "title": "The Westin Austin Downtown"}, "type": "Feature"}, {"geometry": {"coordinates": [-73.98456, 40.73493], "type": "Point"}, "properties": {"marker-symbol": "circle-15", "title": "Hotel 17"}, "type": "Feature"}, {"geometry": {"coordinates": [-118.47241000000001, 33.986965000000005], "type": "Point"}, "properties": {"marker-symbol": "circle-15", "title": "Hotel Erwin"}, "type": "Feature"}, {"geometry": {"coordinates": [-159.33847, 22.010136], "type": "Point"}, "properties": {"marker-symbol": "circle-15", "title": "Kauai Beach Resort"}, "type": "Feature"}, {"geometry": {"coordinates": [-117.75721999999999, 33.514920000000004], "type": "Point"}, "properties": {"marker-symbol": "circle-15", "title": "Montage Laguna Beach"}, "type": "Feature"}, {"geometry": {"coordinates": [-71.31606, 41.4838], "type": "Point"}, "properties": {"marker-symbol": "circle-15", "title": "Forty 1\u2070 North"}, "type": "Feature"}, {"geometry": {"coordinates": [-122.49071, 37.76129], "type": "Point"}, "properties": {"marker-symbol": "circle-15", "title": "The Pot's"}, "type": "Feature"}, {"geometry": {"coordinates": [-122.87138999999999, 38.61043], "type": "Point"}, "properties": {"marker-symbol": "circle-15", "title": "Hotel Healdsburg"}, "type": "Feature"}, {"geometry": {"coordinates": [-97.75031, 30.247307], "type": "Point"}, "properties": {"marker-symbol": "circle-15", "title": "South Congress Hotel"}, "type": "Feature"}, {"geometry": {"coordinates": [-80.1306, 25.788975], "type": "Point"}, "properties": {"marker-symbol": "circle-15", "title": "Hyatt Centric South Beach Miami"}, "type": "Feature"}, {"geometry": {"coordinates": [-73.972565, 40.752563], "type": "Point"}, "properties": {"marker-symbol": "circle-15", "title": "Aburiya Kinnosuke"}, "type": "Feature"}, {"geometry": {"coordinates": [-117.1419, 32.762695], "type": "Point"}, "properties": {"marker-symbol": "circle-15", "title": "Cueva Bar"}, "type": "Feature"}, {"geometry": {"coordinates": [-122.40085, 37.792473], "type": "Point"}, "properties": {"marker-symbol": "circle-15", "title": "Loews Regency San Francisco"}, "type": "Feature"}, {"geometry": {"coordinates": [-97.72829, 30.268729999999998], "type": "Point"}, "properties": {"marker-symbol": "circle-15", "title": "Hotel Eleven"}, "type": "Feature"}, {"geometry": {"coordinates": [-74.00556999999999, 40.72566], "type": "Point"}, "properties": {"marker-symbol": "circle-15", "title": "Koi Restaurant"}, "type": "Feature"}, {"geometry": {"coordinates": [-118.3954, 34.072495], "type": "Point"}, "properties": {"marker-symbol": "circle-15", "title": "Viceroy L'Ermitage Beverly Hills"}, "type": "Feature"}, {"geometry": {"coordinates": [-115.17043000000001, 36.102562], "type": "Point"}, "properties": {"marker-symbol": "circle-15", "title": "Joel Robuchon"}, "type": "Feature"}, {"geometry": {"coordinates": [-80.134766, 25.773497], "type": "Point"}, "properties": {"marker-symbol": "circle-15", "title": "Villa Italia Hotel"}, "type": "Feature"}, {"geometry": {"coordinates": [-73.9885, 40.722076], "type": "Point"}, "properties": {"marker-symbol": "circle-15", "title": "SIXTY LES"}, "type": "Feature"}, {"geometry": {"coordinates": [-92.068665, 46.814587], "type": "Point"}, "properties": {"marker-symbol": "circle-15", "title": "A G Thomson House Bed and Breakfast"}, "type": "Feature"}, {"geometry": {"coordinates": [-73.62364000000001, 41.01808], "type": "Point"}, "properties": {"marker-symbol": "circle-15", "title": "Delamar Greenwich Harbor Hotel"}, "type": "Feature"}, {"geometry": {"coordinates": [-74.0081, 40.740955], "type": "Point"}, "properties": {"marker-symbol": "circle-15", "title": "The Standard, High Line"}, "type": "Feature"}, {"geometry": {"coordinates": [-80.12291, 25.889349], "type": "Point"}, "properties": {"marker-symbol": "circle-15", "title": "The St. Regis Bal Harbour Resort"}, "type": "Feature"}, {"geometry": {"coordinates": [-97.72124000000001, 30.402309999999996], "type": "Point"}, "properties": {"marker-symbol": "circle-15", "title": "Archer Hotel Austin"}, "type": "Feature"}, {"geometry": {"coordinates": [-117.88492, 33.690063], "type": "Point"}, "properties": {"marker-symbol": "circle-15", "title": "The Westin South Coast Plaza"}, "type": "Feature"}, {"geometry": {"coordinates": [-71.05747, 42.35125], "type": "Point"}, "properties": {"marker-symbol": "circle-15", "title": "Les Zygomates"}, "type": "Feature"}, {"geometry": {"coordinates": [-95.369484, 29.756859999999996], "type": "Point"}, "properties": {"marker-symbol": "circle-15", "title": "Hyatt Regency Houston"}, "type": "Feature"}, {"geometry": {"coordinates": [-77.04583000000001, 38.910698], "type": "Point"}, "properties": {"marker-symbol": "circle-15", "title": "The Embassy Row Hotel"}, "type": "Feature"}, {"geometry": {"coordinates": [-157.83217, 21.27957], "type": "Point"}, "properties": {"marker-symbol": "circle-15", "title": "Trump International Hotel Waikiki"}, "type": "Feature"}, {"geometry": {"coordinates": [-104.98765, 39.735718], "type": "Point"}, "properties": {"marker-symbol": "circle-15", "title": "the ART, a hotel"}, "type": "Feature"}, {"geometry": {"coordinates": [-122.3367, 47.61428], "type": "Point"}, "properties": {"marker-symbol": "circle-15", "title": "Hotel Max"}, "type": "Feature"}, {"geometry": {"coordinates": [-117.15958400000001, 32.707527], "type": "Point"}, "properties": {"marker-symbol": "circle-15", "title": "Hard Rock Hotel San Diego"}, "type": "Feature"}, {"geometry": {"coordinates": [-122.53987, 38.403065000000005], "type": "Point"}, "properties": {"marker-symbol": "circle-15", "title": "Kenwood Inn and Spa, A Four Sisters Inn"}, "type": "Feature"}, {"geometry": {"coordinates": [-118.40231999999999, 34.0716], "type": "Point"}, "properties": {"marker-symbol": "circle-15", "title": "Avalon Hotel Beverly Hills"}, "type": "Feature"}, {"geometry": {"coordinates": [-73.97128000000001, 40.762325], "type": "Point"}, "properties": {"marker-symbol": "circle-15", "title": "Four Seasons Hotel New York"}, "type": "Feature"}, {"geometry": {"coordinates": [-90.098915, 29.92465], "type": "Point"}, "properties": {"marker-symbol": "circle-15", "title": "Maison Perrier"}, "type": "Feature"}, {"geometry": {"coordinates": [-115.16865, 36.124928000000004], "type": "Point"}, "properties": {"marker-symbol": "circle-15", "title": "Carnevino"}, "type": "Feature"}, {"geometry": {"coordinates": [-121.51839, 38.5342], "type": "Point"}, "properties": {"marker-symbol": "circle-15", "title": "The Westin Sacramento"}, "type": "Feature"}, {"geometry": {"coordinates": [-90.06867, 29.955769], "type": "Point"}, "properties": {"marker-symbol": "circle-15", "title": "Arnaud's Restaurant / French 75 Bar"}, "type": "Feature"}, {"geometry": {"coordinates": [-96.83202, 32.80392], "type": "Point"}, "properties": {"marker-symbol": "circle-15", "title": "Renaissance Dallas Hotel"}, "type": "Feature"}, {"geometry": {"coordinates": [-73.99729, 40.719433], "type": "Point"}, "properties": {"marker-symbol": "circle-15", "title": "New York Urban Adventures"}, "type": "Feature"}, {"geometry": {"coordinates": [-118.37898999999999, 34.089893], "type": "Point"}, "properties": {"marker-symbol": "circle-15", "title": "Chamberlain West Hollywood"}, "type": "Feature"}, {"geometry": {"coordinates": [-117.12931999999999, 32.74091], "type": "Point"}, "properties": {"marker-symbol": "circle-15", "title": "Alexander's"}, "type": "Feature"}, {"geometry": {"coordinates": [-95.35785, 29.756758], "type": "Point"}, "properties": {"marker-symbol": "circle-15", "title": "The Westin Houston Downtown"}, "type": "Feature"}, {"geometry": {"coordinates": [-95.5454, 29.783147999999997], "type": "Point"}, "properties": {"marker-symbol": "circle-15", "title": "Kuu Restaurant"}, "type": "Feature"}, {"geometry": {"coordinates": [-156.44405, 20.708857000000002], "type": "Point"}, "properties": {"marker-symbol": "circle-15", "title": "Maui Kamaole"}, "type": "Feature"}, {"geometry": {"coordinates": [-122.41433, 37.78671], "type": "Point"}, "properties": {"marker-symbol": "circle-15", "title": "Mensho Tokyo"}, "type": "Feature"}, {"geometry": {"coordinates": [-157.84243999999998, 21.296793], "type": "Point"}, "properties": {"marker-symbol": "circle-15", "title": "Sushi Murayama"}, "type": "Feature"}, {"geometry": {"coordinates": [-122.67791000000001, 45.51905], "type": "Point"}, "properties": {"marker-symbol": "circle-15", "title": "Departure Restaurant and Lounge"}, "type": "Feature"}, {"geometry": {"coordinates": [-98.40071999999999, 29.666615000000004], "type": "Point"}, "properties": {"marker-symbol": "circle-15", "title": "JW Marriott San Antonio Hill Country Resort & Spa"}, "type": "Feature"}, {"geometry": {"coordinates": [-122.2916, 47.62693], "type": "Point"}, "properties": {"marker-symbol": "circle-15", "title": "Nishino"}, "type": "Feature"}, {"geometry": {"coordinates": [-73.99875, 40.73381], "type": "Point"}, "properties": {"marker-symbol": "circle-15", "title": "Casa Apicii"}, "type": "Feature"}, {"geometry": {"coordinates": [-80.1324, 25.773094], "type": "Point"}, "properties": {"marker-symbol": "circle-15", "title": "Room Mate Lord Balfour"}, "type": "Feature"}, {"geometry": {"coordinates": [-97.74105, 30.26815], "type": "Point"}, "properties": {"marker-symbol": "circle-15", "title": "Firehouse Lounge and Hostel"}, "type": "Feature"}, {"geometry": {"coordinates": [-81.58032, 41.50865], "type": "Point"}, "properties": {"marker-symbol": "circle-15", "title": "Bodega Restaurant and Lounge"}, "type": "Feature"}, {"geometry": {"coordinates": [-73.97906, 40.777120000000004], "type": "Point"}, "properties": {"marker-symbol": "circle-15", "title": "Ella Kitchen and Bar"}, "type": "Feature"}, {"geometry": {"coordinates": [0.0, 0.0], "type": "Point"}, "properties": {"marker-symbol": "circle-15", "title": "SFMTA"}, "type": "Feature"}, {"geometry": {"coordinates": [-149.899, 61.21674], "type": "Point"}, "properties": {"marker-symbol": "circle-15", "title": "Yamaya Seafood"}, "type": "Feature"}, {"geometry": {"coordinates": [-118.77926000000001, 34.14443], "type": "Point"}, "properties": {"marker-symbol": "circle-15", "title": "Sheraton Agoura Hills Hotel"}, "type": "Feature"}, {"geometry": {"coordinates": [-122.39996000000001, 37.797028000000005], "type": "Point"}, "properties": {"marker-symbol": "circle-15", "title": "Kokkari Estiatorio"}, "type": "Feature"}, {"geometry": {"coordinates": [-122.49224, 38.54307], "type": "Point"}, "properties": {"marker-symbol": "circle-15", "title": "Casa Nuestra Winery and Vineyards"}, "type": "Feature"}, {"geometry": {"coordinates": [-96.79505, 32.787147999999995], "type": "Point"}, "properties": {"marker-symbol": "circle-15", "title": "Dallas Marriott City Center"}, "type": "Feature"}, {"geometry": {"coordinates": [-73.98993, 40.738827], "type": "Point"}, "properties": {"marker-symbol": "circle-15", "title": "Barn Joo"}, "type": "Feature"}, {"geometry": {"coordinates": [-122.41051000000002, 37.792396999999994], "type": "Point"}, "properties": {"marker-symbol": "circle-15", "title": "Fairmont San Francisco"}, "type": "Feature"}, {"geometry": {"coordinates": [-96.80738000000001, 32.804120000000005], "type": "Point"}, "properties": {"marker-symbol": "circle-15", "title": "Rosewood Mansion on Turtle Creek"}, "type": "Feature"}, {"geometry": {"coordinates": [-115.17121999999999, 36.112774], "type": "Point"}, "properties": {"marker-symbol": "circle-15", "title": "Gordon Ramsay Steak"}, "type": "Feature"}, {"geometry": {"coordinates": [-122.32335, 38.41789], "type": "Point"}, "properties": {"marker-symbol": "circle-15", "title": "Quixote Winery"}, "type": "Feature"}, {"geometry": {"coordinates": [-74.01746999999999, 40.705566], "type": "Point"}, "properties": {"marker-symbol": "circle-15", "title": "The Ritz-Carlton New York, Battery Park"}, "type": "Feature"}, {"geometry": {"coordinates": [-74.005, 40.74595], "type": "Point"}, "properties": {"marker-symbol": "circle-15", "title": "The High Line Hotel"}, "type": "Feature"}, {"geometry": {"coordinates": [-122.45273999999999, 38.492634], "type": "Point"}, "properties": {"marker-symbol": "circle-15", "title": "Louis M. Martini Winery"}, "type": "Feature"}, {"geometry": {"coordinates": [-122.40366999999999, 37.787822999999996], "type": "Point"}, "properties": {"marker-symbol": "circle-15", "title": "Hakkasan San Francisco"}, "type": "Feature"}, {"geometry": {"coordinates": [-104.85047, 38.791042], "type": "Point"}, "properties": {"marker-symbol": "circle-15", "title": "The Broadmoor"}, "type": "Feature"}, {"geometry": {"coordinates": [-116.40921000000002, 33.736732], "type": "Point"}, "properties": {"marker-symbol": "circle-15", "title": "Roy's"}, "type": "Feature"}, {"geometry": {"coordinates": [-73.97749, 40.75042], "type": "Point"}, "properties": {"marker-symbol": "circle-15", "title": "The Renwick Hotel New York City, Curio Collection by Hilton"}, "type": "Feature"}, {"geometry": {"coordinates": [-81.42821500000001, 28.403044], "type": "Point"}, "properties": {"marker-symbol": "circle-15", "title": "Norman's"}, "type": "Feature"}, {"geometry": {"coordinates": [-80.03829, 26.719440000000002], "type": "Point"}, "properties": {"marker-symbol": "circle-15", "title": "Chez Jean Pierre"}, "type": "Feature"}, {"geometry": {"coordinates": [-118.49303400000001, 34.009026], "type": "Point"}, "properties": {"marker-symbol": "circle-15", "title": "Loews Santa Monica Beach Hotel"}, "type": "Feature"}, {"geometry": {"coordinates": [-82.9899, 39.94433], "type": "Point"}, "properties": {"marker-symbol": "circle-15", "title": "Barcelona Restaurant and Bar"}, "type": "Feature"}, {"geometry": {"coordinates": [-95.39071, 29.74492], "type": "Point"}, "properties": {"marker-symbol": "circle-15", "title": "Uchi"}, "type": "Feature"}, {"geometry": {"coordinates": [-115.169426, 35.96505], "type": "Point"}, "properties": {"marker-symbol": "circle-15", "title": "M Resort Spa Casino"}, "type": "Feature"}, {"geometry": {"coordinates": [0.0, 0.0], "type": "Point"}, "properties": {"marker-symbol": "circle-15", "title": "Senor Sisig"}, "type": "Feature"}, {"geometry": {"coordinates": [-74.00425, 40.72115], "type": "Point"}, "properties": {"marker-symbol": "circle-15", "title": "Sheraton Tribeca New York Hotel"}, "type": "Feature"}, {"geometry": {"coordinates": [-80.18809499999999, 25.76815], "type": "Point"}, "properties": {"marker-symbol": "circle-15", "title": "Cantina la Veinte"}, "type": "Feature"}, {"geometry": {"coordinates": [-115.17408, 36.10613], "type": "Point"}, "properties": {"marker-symbol": "circle-15", "title": "Mandarin Oriental, Las Vegas"}, "type": "Feature"}, {"geometry": {"coordinates": [-118.37669, 34.087123999999996], "type": "Point"}, "properties": {"marker-symbol": "circle-15", "title": "Nobu"}, "type": "Feature"}, {"geometry": {"coordinates": [-80.12351, 25.812023], "type": "Point"}, "properties": {"marker-symbol": "circle-15", "title": "Circa 39 Hotel"}, "type": "Feature"}, {"geometry": {"coordinates": [-122.40023000000001, 37.79684], "type": "Point"}, "properties": {"marker-symbol": "circle-15", "title": "5A5 Steak Lounge"}, "type": "Feature"}, {"geometry": {"coordinates": [-73.98108, 40.750440000000005], "type": "Point"}, "properties": {"marker-symbol": "circle-15", "title": "Zuma New York"}, "type": "Feature"}, {"geometry": {"coordinates": [-70.59801, 41.880154], "type": "Point"}, "properties": {"marker-symbol": "circle-15", "title": "Mirbeau Inn & Spa at The Pinehills"}, "type": "Feature"}, {"geometry": {"coordinates": [-122.14686, 47.7336], "type": "Point"}, "properties": {"marker-symbol": "circle-15", "title": "Willows Lodge"}, "type": "Feature"}, {"geometry": {"coordinates": [-115.19453, 36.11445], "type": "Point"}, "properties": {"marker-symbol": "circle-15", "title": "Nove"}, "type": "Feature"}, {"geometry": {"coordinates": [-118.32698, 34.101482], "type": "Point"}, "properties": {"marker-symbol": "circle-15", "title": "Katsuya"}, "type": "Feature"}, {"geometry": {"coordinates": [-74.00483, 40.722687], "type": "Point"}, "properties": {"marker-symbol": "circle-15", "title": "The James New York"}, "type": "Feature"}, {"geometry": {"coordinates": [-78.50789, 39.996307], "type": "Point"}, "properties": {"marker-symbol": "circle-15", "title": "Springs Eternal Spa"}, "type": "Feature"}, {"geometry": {"coordinates": [-111.92863, 33.527306], "type": "Point"}, "properties": {"marker-symbol": "circle-15", "title": "Andaz Scottsdale Resort and Spa"}, "type": "Feature"}, {"geometry": {"coordinates": [-156.8949, 20.741747], "type": "Point"}, "properties": {"marker-symbol": "circle-15", "title": "Four Seasons Resort Lanai"}, "type": "Feature"}, {"geometry": {"coordinates": [-80.13094, 25.779379000000002], "type": "Point"}, "properties": {"marker-symbol": "circle-15", "title": "Mango's Tropical Cafe"}, "type": "Feature"}, {"geometry": {"coordinates": [-83.54632600000001, 41.620290000000004], "type": "Point"}, "properties": {"marker-symbol": "circle-15", "title": "Final Cut Steak & Seafood"}, "type": "Feature"}, {"geometry": {"coordinates": [-81.457115, 28.42462], "type": "Point"}, "properties": {"marker-symbol": "circle-15", "title": "Spencer's For Steaks & Chops"}, "type": "Feature"}, {"geometry": {"coordinates": [-114.89511999999999, 35.973079999999996], "type": "Point"}, "properties": {"marker-symbol": "circle-15", "title": "Cascata Golf Course"}, "type": "Feature"}, {"geometry": {"coordinates": [-117.87998999999999, 33.691520000000004], "type": "Point"}, "properties": {"marker-symbol": "circle-15", "title": "Avenue of the Arts Costa Mesa, a Tribute Portfolio Hotel"}, "type": "Feature"}, {"geometry": {"coordinates": [-77.06182, 38.90325], "type": "Point"}, "properties": {"marker-symbol": "circle-15", "title": "The Ritz-Carlton Georgetown, Washington, D.C."}, "type": "Feature"}, {"geometry": {"coordinates": [-89.387535, 43.078759999999996], "type": "Point"}, "properties": {"marker-symbol": "circle-15", "title": "Mansion Hill Inn"}, "type": "Feature"}, {"geometry": {"coordinates": [-122.28405, 38.30405], "type": "Point"}, "properties": {"marker-symbol": "circle-15", "title": "La Toque"}, "type": "Feature"}, {"geometry": {"coordinates": [-78.131996, 38.273296], "type": "Point"}, "properties": {"marker-symbol": "circle-15", "title": "The Inn at Willow Grove"}, "type": "Feature"}, {"geometry": {"coordinates": [-115.17742, 36.106646999999995], "type": "Point"}, "properties": {"marker-symbol": "circle-15", "title": "Blossom"}, "type": "Feature"}, {"geometry": {"coordinates": [-87.6317, 41.890938], "type": "Point"}, "properties": {"marker-symbol": "circle-15", "title": "Sunda"}, "type": "Feature"}, {"geometry": {"coordinates": [-73.97583, 40.758247], "type": "Point"}, "properties": {"marker-symbol": "circle-15", "title": "Lotte New York Palace"}, "type": "Feature"}, {"geometry": {"coordinates": [-87.62552, 41.900764], "type": "Point"}, "properties": {"marker-symbol": "circle-15", "title": "Fig & Olive"}, "type": "Feature"}, {"geometry": {"coordinates": [-118.39769, 34.055496000000005], "type": "Point"}, "properties": {"marker-symbol": "circle-15", "title": "Picca"}, "type": "Feature"}, {"geometry": {"coordinates": [-157.83855, 21.284229999999997], "type": "Point"}, "properties": {"marker-symbol": "circle-15", "title": "Sarento's at The Top of The Ilikai"}, "type": "Feature"}, {"geometry": {"coordinates": [-122.40916000000001, 37.788376], "type": "Point"}, "properties": {"marker-symbol": "circle-15", "title": "The Inn at Union Square"}, "type": "Feature"}, {"geometry": {"coordinates": [-117.15974399999999, 32.716324], "type": "Point"}, "properties": {"marker-symbol": "circle-15", "title": "Kimpton Hotel Palomar San Diego"}, "type": "Feature"}, {"geometry": {"coordinates": [-75.59073000000001, 43.113686], "type": "Point"}, "properties": {"marker-symbol": "circle-15", "title": "The Lodge at Turning Stone"}, "type": "Feature"}, {"geometry": {"coordinates": [-122.39573999999999, 37.779340000000005], "type": "Point"}, "properties": {"marker-symbol": "circle-15", "title": "Alexander's Steakhouse"}, "type": "Feature"}, {"geometry": {"coordinates": [-74.01044499999999, 40.71907], "type": "Point"}, "properties": {"marker-symbol": "circle-15", "title": "Tablao Tapas"}, "type": "Feature"}, {"geometry": {"coordinates": [-77.00104, 38.894484999999996], "type": "Point"}, "properties": {"marker-symbol": "circle-15", "title": "Bistro Cacao"}, "type": "Feature"}, {"geometry": {"coordinates": [-73.98319000000001, 40.74283], "type": "Point"}, "properties": {"marker-symbol": "circle-15", "title": "O Ya"}, "type": "Feature"}, {"geometry": {"coordinates": [-73.97797, 40.748363], "type": "Point"}, "properties": {"marker-symbol": "circle-15", "title": "Shelburne NYC-an Affinia hotel"}, "type": "Feature"}, {"geometry": {"coordinates": [-86.880394, 33.39265], "type": "Point"}, "properties": {"marker-symbol": "circle-15", "title": "Renaissance Birmingham Ross Bridge Golf Resort & Spa"}, "type": "Feature"}, {"geometry": {"coordinates": [-71.07981, 42.349315999999995], "type": "Point"}, "properties": {"marker-symbol": "circle-15", "title": "Lenox Hotel"}, "type": "Feature"}, {"geometry": {"coordinates": [-73.98909, 40.746178], "type": "Point"}, "properties": {"marker-symbol": "circle-15", "title": "The Paul Hotel"}, "type": "Feature"}, {"geometry": {"coordinates": [-73.969215, 40.76455], "type": "Point"}, "properties": {"marker-symbol": "circle-15", "title": "Loews Regency New York Hotel"}, "type": "Feature"}, {"geometry": {"coordinates": [-90.189026, 38.62505], "type": "Point"}, "properties": {"marker-symbol": "circle-15", "title": "Tony's"}, "type": "Feature"}, {"geometry": {"coordinates": [-118.30991000000002, 33.83463], "type": "Point"}, "properties": {"marker-symbol": "circle-15", "title": "Miyako Hybrid Hotel"}, "type": "Feature"}, {"geometry": {"coordinates": [-97.73906, 30.260319], "type": "Point"}, "properties": {"marker-symbol": "circle-15", "title": "Kimpton Hotel Van Zandt"}, "type": "Feature"}, {"geometry": {"coordinates": [-122.41308000000001, 37.77128], "type": "Point"}, "properties": {"marker-symbol": "circle-15", "title": "bar agricole"}, "type": "Feature"}, {"geometry": {"coordinates": [-73.972565, 40.764340000000004], "type": "Point"}, "properties": {"marker-symbol": "circle-15", "title": "The Sherry-Netherland Hotel"}, "type": "Feature"}, {"geometry": {"coordinates": [-87.69152, 41.89541], "type": "Point"}, "properties": {"marker-symbol": "circle-15", "title": "Kai Zan"}, "type": "Feature"}, {"geometry": {"coordinates": [-82.74155999999999, 27.725307], "type": "Point"}, "properties": {"marker-symbol": "circle-15", "title": "Level 11 Rooftop"}, "type": "Feature"}, {"geometry": {"coordinates": [-111.95926999999999, 33.522], "type": "Point"}, "properties": {"marker-symbol": "circle-15", "title": "The Sanctuary Spa"}, "type": "Feature"}, {"geometry": {"coordinates": [-157.8384, 21.283255], "type": "Point"}, "properties": {"marker-symbol": "circle-15", "title": "Grand Waikikian by Hilton Grand Vacations"}, "type": "Feature"}, {"geometry": {"coordinates": [-84.2806, 30.446281], "type": "Point"}, "properties": {"marker-symbol": "circle-15", "title": "Hotel Duval, Autograph Collection"}, "type": "Feature"}, {"geometry": {"coordinates": [-80.08603000000001, 26.248663], "type": "Point"}, "properties": {"marker-symbol": "circle-15", "title": "Fort Lauderdale Marriott Pompano Beach Resort & Spa"}, "type": "Feature"}, {"geometry": {"coordinates": [-87.631714, 41.88066], "type": "Point"}, "properties": {"marker-symbol": "circle-15", "title": "The Kimpton Gray Hotel"}, "type": "Feature"}, {"geometry": {"coordinates": [-82.55005, 27.965551], "type": "Point"}, "properties": {"marker-symbol": "circle-15", "title": "Grand Hyatt Tampa Bay"}, "type": "Feature"}, {"geometry": {"coordinates": [-75.16221, 39.94685], "type": "Point"}, "properties": {"marker-symbol": "circle-15", "title": "Valanni"}, "type": "Feature"}, {"geometry": {"coordinates": [-90.06854, 29.951038], "type": "Point"}, "properties": {"marker-symbol": "circle-15", "title": "Omni Royal Crescent Hotel"}, "type": "Feature"}, {"geometry": {"coordinates": [-122.399345, 37.79359], "type": "Point"}, "properties": {"marker-symbol": "circle-15", "title": "Perbacco"}, "type": "Feature"}, {"geometry": {"coordinates": [-122.41167, 37.786], "type": "Point"}, "properties": {"marker-symbol": "circle-15", "title": "Avital Food Tours"}, "type": "Feature"}, {"geometry": {"coordinates": [-106.52458999999999, 39.632908], "type": "Point"}, "properties": {"marker-symbol": "circle-15", "title": "Maya"}, "type": "Feature"}, {"geometry": {"coordinates": [-122.41909, 37.756596], "type": "Point"}, "properties": {"marker-symbol": "circle-15", "title": "Lolinda"}, "type": "Feature"}, {"geometry": {"coordinates": [-71.05195, 42.353935], "type": "Point"}, "properties": {"marker-symbol": "circle-15", "title": "InterContinental Boston"}, "type": "Feature"}, {"geometry": {"coordinates": [-117.23917, 32.935863], "type": "Point"}, "properties": {"marker-symbol": "circle-15", "title": "San Diego Marriott Del Mar"}, "type": "Feature"}, {"geometry": {"coordinates": [-80.00180999999999, 40.44055], "type": "Point"}, "properties": {"marker-symbol": "circle-15", "title": "Roost - Revel + Roost"}, "type": "Feature"}, {"geometry": {"coordinates": [-122.33611, 47.60505], "type": "Point"}, "properties": {"marker-symbol": "circle-15", "title": "Hotel 1000"}, "type": "Feature"}, {"geometry": {"coordinates": [-81.429016, 28.405234999999998], "type": "Point"}, "properties": {"marker-symbol": "circle-15", "title": "The Ritz-Carlton Orlando, Grande Lakes"}, "type": "Feature"}, {"geometry": {"coordinates": [-95.36381999999999, 29.758339000000003], "type": "Point"}, "properties": {"marker-symbol": "circle-15", "title": "JW Marriott Houston Downtown"}, "type": "Feature"}, {"geometry": {"coordinates": [-73.96473, 40.77346], "type": "Point"}, "properties": {"marker-symbol": "circle-15", "title": "Caravaggio Restaurant"}, "type": "Feature"}, {"geometry": {"coordinates": [-73.97958, 40.78337], "type": "Point"}, "properties": {"marker-symbol": "circle-15", "title": "Burke & Wills"}, "type": "Feature"}, {"geometry": {"coordinates": [-104.82200999999999, 38.833412], "type": "Point"}, "properties": {"marker-symbol": "circle-15", "title": "The Mining Exchange A Wyndham Grand Hotel & Spa"}, "type": "Feature"}, {"geometry": {"coordinates": [-106.06674, 39.480185999999996], "type": "Point"}, "properties": {"marker-symbol": "circle-15", "title": "One Ski Hill Place, A RockResort"}, "type": "Feature"}, {"geometry": {"coordinates": [-80.18949, 25.771156], "type": "Point"}, "properties": {"marker-symbol": "circle-15", "title": "db Bistro Moderne"}, "type": "Feature"}, {"geometry": {"coordinates": [-118.60648, 34.18628], "type": "Point"}, "properties": {"marker-symbol": "circle-15", "title": "Fleming's Prime Steakhouse & Wine Bar"}, "type": "Feature"}, {"geometry": {"coordinates": [-73.97559, 40.75966], "type": "Point"}, "properties": {"marker-symbol": "circle-15", "title": "La Grenouille"}, "type": "Feature"}, {"geometry": {"coordinates": [-93.27382, 36.534603000000004], "type": "Point"}, "properties": {"marker-symbol": "circle-15", "title": "Big Cedar Spa"}, "type": "Feature"}, {"geometry": {"coordinates": [-73.983765, 40.750263000000004], "type": "Point"}, "properties": {"marker-symbol": "circle-15", "title": "Langham Place, New York, Fifth Avenue"}, "type": "Feature"}, {"geometry": {"coordinates": [-111.83563999999998, 33.590412], "type": "Point"}, "properties": {"marker-symbol": "circle-15", "title": "Hawaiian Experience Spa"}, "type": "Feature"}, {"geometry": {"coordinates": [-112.04048999999999, 33.46546], "type": "Point"}, "properties": {"marker-symbol": "circle-15", "title": "Couscous Express"}, "type": "Feature"}, {"geometry": {"coordinates": [-80.13239, 25.778994], "type": "Point"}, "properties": {"marker-symbol": "circle-15", "title": "Hotel Shelley"}, "type": "Feature"}, {"geometry": {"coordinates": [-117.38364399999999, 33.19505], "type": "Point"}, "properties": {"marker-symbol": "circle-15", "title": "333 Pacific - Steaks & Seafood"}, "type": "Feature"}, {"geometry": {"coordinates": [-80.12389, 25.805227], "type": "Point"}, "properties": {"marker-symbol": "circle-15", "title": "Matador Room"}, "type": "Feature"}, {"geometry": {"coordinates": [-73.98404000000001, 40.757571999999996], "type": "Point"}, "properties": {"marker-symbol": "circle-15", "title": "Hyatt Centric Times Square New York"}, "type": "Feature"}, {"geometry": {"coordinates": [-86.32667, 30.370328999999998], "type": "Point"}, "properties": {"marker-symbol": "circle-15", "title": "Seagar\u2019s Prime Steaks & Seafood"}, "type": "Feature"}, {"geometry": {"coordinates": [-117.85000600000001, 33.67848], "type": "Point"}, "properties": {"marker-symbol": "circle-15", "title": "Irvine Marriott"}, "type": "Feature"}, {"geometry": {"coordinates": [-117.26064, 33.052013], "type": "Point"}, "properties": {"marker-symbol": "circle-15", "title": "Firefly Grill and Wine Bar"}, "type": "Feature"}, {"geometry": {"coordinates": [-123.08944, 44.054115], "type": "Point"}, "properties": {"marker-symbol": "circle-15", "title": "Inn at the 5th"}, "type": "Feature"}, {"geometry": {"coordinates": [-80.14202, 25.790545], "type": "Point"}, "properties": {"marker-symbol": "circle-15", "title": "Haven"}, "type": "Feature"}, {"geometry": {"coordinates": [-81.26939399999999, 28.808515999999997], "type": "Point"}, "properties": {"marker-symbol": "circle-15", "title": "Higgins House Victorian Bed and Breakfast"}, "type": "Feature"}, {"geometry": {"coordinates": [-80.03882, 26.703419], "type": "Point"}, "properties": {"marker-symbol": "circle-15", "title": "The Brazilian Court Hotel"}, "type": "Feature"}, {"geometry": {"coordinates": [-73.96398, 40.774390000000004], "type": "Point"}, "properties": {"marker-symbol": "circle-15", "title": "Cafe Boulud"}, "type": "Feature"}, {"geometry": {"coordinates": [-122.40292, 37.795506], "type": "Point"}, "properties": {"marker-symbol": "circle-15", "title": "Kusakabe"}, "type": "Feature"}, {"geometry": {"coordinates": [-122.67733999999999, 45.519913], "type": "Point"}, "properties": {"marker-symbol": "circle-15", "title": "Kimpton Hotel Monaco Portland"}, "type": "Feature"}, {"geometry": {"coordinates": [-80.00139, 40.44137], "type": "Point"}, "properties": {"marker-symbol": "circle-15", "title": "Fairmont Pittsburgh"}, "type": "Feature"}, {"geometry": {"coordinates": [-87.62665600000001, 41.888824], "type": "Point"}, "properties": {"marker-symbol": "circle-15", "title": "Sixteen"}, "type": "Feature"}, {"geometry": {"coordinates": [-110.93951399999999, 32.242596], "type": "Point"}, "properties": {"marker-symbol": "circle-15", "title": "Arizona Inn"}, "type": "Feature"}, {"geometry": {"coordinates": [-110.76288000000001, 43.48072], "type": "Point"}, "properties": {"marker-symbol": "circle-15", "title": "Hotel Jackson"}, "type": "Feature"}, {"geometry": {"coordinates": [-82.73735, 27.70932], "type": "Point"}, "properties": {"marker-symbol": "circle-15", "title": "The Maritana Grille at The Don CeSar"}, "type": "Feature"}, {"geometry": {"coordinates": [-122.351906, 47.612595], "type": "Point"}, "properties": {"marker-symbol": "circle-15", "title": "The Edgewater, A Noble House Hotel"}, "type": "Feature"}, {"geometry": {"coordinates": [-116.4085, 33.81463], "type": "Point"}, "properties": {"marker-symbol": "circle-15", "title": "Agua Caliente Casino Resort Spa"}, "type": "Feature"}, {"geometry": {"coordinates": [-93.277374, 44.970591999999996], "type": "Point"}, "properties": {"marker-symbol": "circle-15", "title": "Millennium Minneapolis"}, "type": "Feature"}, {"geometry": {"coordinates": [-93.35415, 44.860355], "type": "Point"}, "properties": {"marker-symbol": "circle-15", "title": "Sheraton Bloomington Hotel"}, "type": "Feature"}, {"geometry": {"coordinates": [-116.53848, 33.825127], "type": "Point"}, "properties": {"marker-symbol": "circle-15", "title": "Renaissance Palm Springs Hotel"}, "type": "Feature"}, {"geometry": {"coordinates": [-122.96046399999999, 38.33096], "type": "Point"}, "properties": {"marker-symbol": "circle-15", "title": "Sonoma Coast Villa & Spa"}, "type": "Feature"}, {"geometry": {"coordinates": [-118.40006000000001, 33.739309999999996], "type": "Point"}, "properties": {"marker-symbol": "circle-15", "title": "Terranea Resort"}, "type": "Feature"}, {"geometry": {"coordinates": [-118.38541000000001, 34.09003], "type": "Point"}, "properties": {"marker-symbol": "circle-15", "title": "The London West Hollywood"}, "type": "Feature"}, {"geometry": {"coordinates": [-122.41808999999999, 37.795307], "type": "Point"}, "properties": {"marker-symbol": "circle-15", "title": "Seven Hills"}, "type": "Feature"}, {"geometry": {"coordinates": [-73.9943, 40.756405], "type": "Point"}, "properties": {"marker-symbol": "circle-15", "title": "Cassa Hotel Times Square"}, "type": "Feature"}, {"geometry": {"coordinates": [-87.62472, 41.87327], "type": "Point"}, "properties": {"marker-symbol": "circle-15", "title": "Mercat a la Planxa"}, "type": "Feature"}, {"geometry": {"coordinates": [-71.122955, 42.372417], "type": "Point"}, "properties": {"marker-symbol": "circle-15", "title": "Charles Hotel"}, "type": "Feature"}, {"geometry": {"coordinates": [-79.92241, 40.42938], "type": "Point"}, "properties": {"marker-symbol": "circle-15", "title": "Chengdu Gourmet"}, "type": "Feature"}, {"geometry": {"coordinates": [-74.66521, 40.349182], "type": "Point"}, "properties": {"marker-symbol": "circle-15", "title": "The Peacock Inn"}, "type": "Feature"}, {"geometry": {"coordinates": [-119.79368600000001, 39.488907], "type": "Point"}, "properties": {"marker-symbol": "circle-15", "title": "Bistro Napa"}, "type": "Feature"}, {"geometry": {"coordinates": [-122.34038000000001, 47.613045], "type": "Point"}, "properties": {"marker-symbol": "circle-15", "title": "Dahlia Lounge"}, "type": "Feature"}, {"geometry": {"coordinates": [-77.04345, 38.906494], "type": "Point"}, "properties": {"marker-symbol": "circle-15", "title": "I Ricchi"}, "type": "Feature"}, {"geometry": {"coordinates": [-120.68915, 35.626976], "type": "Point"}, "properties": {"marker-symbol": "circle-15", "title": "Artisan"}, "type": "Feature"}, {"geometry": {"coordinates": [-71.48465, 41.374916], "type": "Point"}, "properties": {"marker-symbol": "circle-15", "title": "The Break"}, "type": "Feature"}, {"geometry": {"coordinates": [-84.51348, 39.102579999999996], "type": "Point"}, "properties": {"marker-symbol": "circle-15", "title": "Palace Restaurant"}, "type": "Feature"}, {"geometry": {"coordinates": [-73.98692, 40.720467], "type": "Point"}, "properties": {"marker-symbol": "circle-15", "title": "Beauty & Essex"}, "type": "Feature"}, {"geometry": {"coordinates": [-82.54359000000001, 27.335846000000004], "type": "Point"}, "properties": {"marker-symbol": "circle-15", "title": "Selva Grill"}, "type": "Feature"}, {"geometry": {"coordinates": [-115.17577, 36.108463], "type": "Point"}, "properties": {"marker-symbol": "circle-15", "title": "Julian Serrano Tapas"}, "type": "Feature"}, {"geometry": {"coordinates": [-95.40911, 29.742372999999997], "type": "Point"}, "properties": {"marker-symbol": "circle-15", "title": "Churrascos"}, "type": "Feature"}, {"geometry": {"coordinates": [-80.12998, 25.785857999999998], "type": "Point"}, "properties": {"marker-symbol": "circle-15", "title": "Penguin Hotel"}, "type": "Feature"}, {"geometry": {"coordinates": [-82.45438399999999, 27.941453999999997], "type": "Point"}, "properties": {"marker-symbol": "circle-15", "title": "Tampa Marriott Waterside Hotel & Marina"}, "type": "Feature"}, {"geometry": {"coordinates": [-89.38643, 43.07567], "type": "Point"}, "properties": {"marker-symbol": "circle-15", "title": "Madison Concourse Hotel and Governor's Club"}, "type": "Feature"}, {"geometry": {"coordinates": [-111.92801999999999, 33.498028000000005], "type": "Point"}, "properties": {"marker-symbol": "circle-15", "title": "Citizen Public House"}, "type": "Feature"}, {"geometry": {"coordinates": [-81.428, 28.401334999999996], "type": "Point"}, "properties": {"marker-symbol": "circle-15", "title": "JW Marriott Orlando, Grande Lakes"}, "type": "Feature"}, {"geometry": {"coordinates": [-118.39856999999999, 34.06811], "type": "Point"}, "properties": {"marker-symbol": "circle-15", "title": "Montage Beverly Hills"}, "type": "Feature"}, {"geometry": {"coordinates": [-86.01704000000001, 30.278763], "type": "Point"}, "properties": {"marker-symbol": "circle-15", "title": "The Pearl"}, "type": "Feature"}, {"geometry": {"coordinates": [-122.33797, 47.61228], "type": "Point"}, "properties": {"marker-symbol": "circle-15", "title": "Andaluca"}, "type": "Feature"}, {"geometry": {"coordinates": [-69.99656, 41.722256], "type": "Point"}, "properties": {"marker-symbol": "circle-15", "title": "Wequassett Resort and Golf Club"}, "type": "Feature"}, {"geometry": {"coordinates": [-80.03875, 26.582473999999998], "type": "Point"}, "properties": {"marker-symbol": "circle-15", "title": "Eau Spa"}, "type": "Feature"}, {"geometry": {"coordinates": [-73.95286, 40.771545], "type": "Point"}, "properties": {"marker-symbol": "circle-15", "title": "Sushi of Gari"}, "type": "Feature"}, {"geometry": {"coordinates": [-87.624886, 41.888245], "type": "Point"}, "properties": {"marker-symbol": "circle-15", "title": "LondonHouse Chicago, Curio Collection by Hilton"}, "type": "Feature"}, {"geometry": {"coordinates": [-111.932076, 33.625095], "type": "Point"}, "properties": {"marker-symbol": "circle-15", "title": "deseo at Westin Kierland Resort and Spa"}, "type": "Feature"}, {"geometry": {"coordinates": [-117.16153, 32.716084], "type": "Point"}, "properties": {"marker-symbol": "circle-15", "title": "Grant Grill"}, "type": "Feature"}, {"geometry": {"coordinates": [-73.96095, 40.71885], "type": "Point"}, "properties": {"marker-symbol": "circle-15", "title": "Zenkichi"}, "type": "Feature"}, {"geometry": {"coordinates": [-94.62009, 39.162167], "type": "Point"}, "properties": {"marker-symbol": "circle-15", "title": "Argosy Casino Hotel & Spa Kansas City"}, "type": "Feature"}, {"geometry": {"coordinates": [-74.00798, 40.72438], "type": "Point"}, "properties": {"marker-symbol": "circle-15", "title": "Arlo Hudson Square"}, "type": "Feature"}, {"geometry": {"coordinates": [-73.99741, 40.723034000000006], "type": "Point"}, "properties": {"marker-symbol": "circle-15", "title": "Crosby Street Hotel"}, "type": "Feature"}, {"geometry": {"coordinates": [-104.99296000000001, 39.747746], "type": "Point"}, "properties": {"marker-symbol": "circle-15", "title": "Panzano"}, "type": "Feature"}, {"geometry": {"coordinates": [-87.69655999999999, 41.990345], "type": "Point"}, "properties": {"marker-symbol": "circle-15", "title": "Katsu Japanese Restaurant"}, "type": "Feature"}, {"geometry": {"coordinates": [-118.35051999999999, 33.835888], "type": "Point"}, "properties": {"marker-symbol": "circle-15", "title": "Torrance Marriott Redondo Beach"}, "type": "Feature"}, {"geometry": {"coordinates": [-122.314476, 47.61508], "type": "Point"}, "properties": {"marker-symbol": "circle-15", "title": "Spinasse"}, "type": "Feature"}, {"geometry": {"coordinates": [-95.43287, 29.731005], "type": "Point"}, "properties": {"marker-symbol": "circle-15", "title": "DoubleTree by Hilton Houston - Greenway Plaza"}, "type": "Feature"}, {"geometry": {"coordinates": [-71.065475, 42.35088], "type": "Point"}, "properties": {"marker-symbol": "circle-15", "title": "W Boston"}, "type": "Feature"}, {"geometry": {"coordinates": [-96.82416500000001, 32.95111], "type": "Point"}, "properties": {"marker-symbol": "circle-15", "title": "Dallas/Addison Marriott Quorum by the Galleria"}, "type": "Feature"}, {"geometry": {"coordinates": [-73.98629, 40.73918], "type": "Point"}, "properties": {"marker-symbol": "circle-15", "title": "Novita"}, "type": "Feature"}, {"geometry": {"coordinates": [-82.55792, 35.596783], "type": "Point"}, "properties": {"marker-symbol": "circle-15", "title": "Hotel Indigo Asheville Downtown"}, "type": "Feature"}, {"geometry": {"coordinates": [-76.99511, 38.907738], "type": "Point"}, "properties": {"marker-symbol": "circle-15", "title": "Kellogg Conference Hotel at Gallaudet University"}, "type": "Feature"}, {"geometry": {"coordinates": [-80.12401, 25.805054000000002], "type": "Point"}, "properties": {"marker-symbol": "circle-15", "title": "The Miami Beach EDITION"}, "type": "Feature"}, {"geometry": {"coordinates": [-73.9758, 40.765274], "type": "Point"}, "properties": {"marker-symbol": "circle-15", "title": "The Ritz-Carlton New York, Central Park"}, "type": "Feature"}, {"geometry": {"coordinates": [-80.1313, 25.778745999999998], "type": "Point"}, "properties": {"marker-symbol": "circle-15", "title": "Casa Grande Suite Hotel of South Beach"}, "type": "Feature"}, {"geometry": {"coordinates": [-73.95317, 40.767784000000006], "type": "Point"}, "properties": {"marker-symbol": "circle-15", "title": "Tanoshi Sushi Sake Bar"}, "type": "Feature"}, {"geometry": {"coordinates": [-104.85028, 38.790966], "type": "Point"}, "properties": {"marker-symbol": "circle-15", "title": "Penrose Room"}, "type": "Feature"}, {"geometry": {"coordinates": [-93.087875, 34.436558000000005], "type": "Point"}, "properties": {"marker-symbol": "circle-15", "title": "Thai-Me Spa"}, "type": "Feature"}, {"geometry": {"coordinates": [-93.096664, 44.94642], "type": "Point"}, "properties": {"marker-symbol": "circle-15", "title": "Meritage"}, "type": "Feature"}, {"geometry": {"coordinates": [-84.36657, 33.84945], "type": "Point"}, "properties": {"marker-symbol": "circle-15", "title": "Mandarin Oriental, Atlanta"}, "type": "Feature"}, {"geometry": {"coordinates": [-122.40737, 37.78983], "type": "Point"}, "properties": {"marker-symbol": "circle-15", "title": "Mystic Hotel by Charlie Palmer"}, "type": "Feature"}, {"geometry": {"coordinates": [-117.160255, 32.712303000000006], "type": "Point"}, "properties": {"marker-symbol": "circle-15", "title": "Greystone Prime SteakHouse & Seafood"}, "type": "Feature"}, {"geometry": {"coordinates": [-74.00482, 40.731426], "type": "Point"}, "properties": {"marker-symbol": "circle-15", "title": "Best Tours"}, "type": "Feature"}, {"geometry": {"coordinates": [-104.98998, 39.747032], "type": "Point"}, "properties": {"marker-symbol": "circle-15", "title": "Denver Marriott City Center"}, "type": "Feature"}, {"geometry": {"coordinates": [-81.703, 41.4999], "type": "Point"}, "properties": {"marker-symbol": "circle-15", "title": "Aloft Cleveland Downtown"}, "type": "Feature"}, {"geometry": {"coordinates": [-84.38769, 33.778403999999995], "type": "Point"}, "properties": {"marker-symbol": "circle-15", "title": "Renaissance Atlanta Midtown Hotel"}, "type": "Feature"}, {"geometry": {"coordinates": [-76.3051, 40.037597999999996], "type": "Point"}, "properties": {"marker-symbol": "circle-15", "title": "Lancaster Marriott at Penn Square"}, "type": "Feature"}, {"geometry": {"coordinates": [-80.129005, 25.795002], "type": "Point"}, "properties": {"marker-symbol": "circle-15", "title": "Shore Club South Beach Hotel"}, "type": "Feature"}, {"geometry": {"coordinates": [-70.09949499999999, 41.28528], "type": "Point"}, "properties": {"marker-symbol": "circle-15", "title": "Greydon House"}, "type": "Feature"}, {"geometry": {"coordinates": [-87.62516, 41.89046], "type": "Point"}, "properties": {"marker-symbol": "circle-15", "title": "Phil Stefani's 437 Rush"}, "type": "Feature"}, {"geometry": {"coordinates": [-81.44416, 30.59447], "type": "Point"}, "properties": {"marker-symbol": "circle-15", "title": "Salt The Grill at The Ritz-Carlton"}, "type": "Feature"}, {"geometry": {"coordinates": [-80.19972, 25.801165], "type": "Point"}, "properties": {"marker-symbol": "circle-15", "title": "Wynwood Art Walk"}, "type": "Feature"}, {"geometry": {"coordinates": [-87.62833, 41.893433], "type": "Point"}, "properties": {"marker-symbol": "circle-15", "title": "Quartino"}, "type": "Feature"}, {"geometry": {"coordinates": [-73.97364, 40.756572999999996], "type": "Point"}, "properties": {"marker-symbol": "circle-15", "title": "Peacock Alley"}, "type": "Feature"}, {"geometry": {"coordinates": [-122.18976, 47.60556], "type": "Point"}, "properties": {"marker-symbol": "circle-15", "title": "Hotel Bellevue"}, "type": "Feature"}, {"geometry": {"coordinates": [-122.39992, 37.786736], "type": "Point"}, "properties": {"marker-symbol": "circle-15", "title": "Mourad"}, "type": "Feature"}, {"geometry": {"coordinates": [-87.62499, 41.897059999999996], "type": "Point"}, "properties": {"marker-symbol": "circle-15", "title": "Park Hyatt Chicago"}, "type": "Feature"}, {"geometry": {"coordinates": [-118.2645, 34.0445], "type": "Point"}, "properties": {"marker-symbol": "circle-15", "title": "Luxe City Center Hotel"}, "type": "Feature"}, {"geometry": {"coordinates": [-156.44194, 20.680342], "type": "Point"}, "properties": {"marker-symbol": "circle-15", "title": "Four Seasons Resort Maui at Wailea"}, "type": "Feature"}, {"geometry": {"coordinates": [-118.47986599999999, 33.998492999999996], "type": "Point"}, "properties": {"marker-symbol": "circle-15", "title": "Via Veneto"}, "type": "Feature"}, {"geometry": {"coordinates": [-79.929214, 32.786705], "type": "Point"}, "properties": {"marker-symbol": "circle-15", "title": "Zero George Street"}, "type": "Feature"}, {"geometry": {"coordinates": [-122.333855, 47.61365], "type": "Point"}, "properties": {"marker-symbol": "circle-15", "title": "Hyatt At Olive 8"}, "type": "Feature"}, {"geometry": {"coordinates": [-74.008125, 40.70516], "type": "Point"}, "properties": {"marker-symbol": "circle-15", "title": "Andaz Wall Street"}, "type": "Feature"}, {"geometry": {"coordinates": [-87.64260999999999, 41.883965], "type": "Point"}, "properties": {"marker-symbol": "circle-15", "title": "Sepia"}, "type": "Feature"}, {"geometry": {"coordinates": [-122.34007, 47.61517], "type": "Point"}, "properties": {"marker-symbol": "circle-15", "title": "Tanakasan"}, "type": "Feature"}, {"geometry": {"coordinates": [-115.17416399999999, 36.113777], "type": "Point"}, "properties": {"marker-symbol": "circle-15", "title": "Prime Steakhouse"}, "type": "Feature"}, {"geometry": {"coordinates": [-73.98598, 40.75519], "type": "Point"}, "properties": {"marker-symbol": "circle-15", "title": "Hilton Garden Inn New York - Times Square Central"}, "type": "Feature"}, {"geometry": {"coordinates": [-71.055626, 42.362885], "type": "Point"}, "properties": {"marker-symbol": "circle-15", "title": "Taranta"}, "type": "Feature"}, {"geometry": {"coordinates": [-80.03912, 26.703709000000003], "type": "Point"}, "properties": {"marker-symbol": "circle-15", "title": "Cafe Boulud"}, "type": "Feature"}, {"geometry": {"coordinates": [-81.53398, 28.352655], "type": "Point"}, "properties": {"marker-symbol": "circle-15", "title": "Bull & Bear Steakhouse at Waldorf Astoria Orlando"}, "type": "Feature"}, {"geometry": {"coordinates": [-115.15681000000001, 36.142466999999996], "type": "Point"}, "properties": {"marker-symbol": "circle-15", "title": "Cleo"}, "type": "Feature"}, {"geometry": {"coordinates": [-87.62145, 41.893143], "type": "Point"}, "properties": {"marker-symbol": "circle-15", "title": "Ivy Boutique Hotel"}, "type": "Feature"}, {"geometry": {"coordinates": [-73.982834, 40.764023], "type": "Point"}, "properties": {"marker-symbol": "circle-15", "title": "Ameritania Hotel"}, "type": "Feature"}, {"geometry": {"coordinates": [-73.96314, 40.764423], "type": "Point"}, "properties": {"marker-symbol": "circle-15", "title": "Gardens NYC-an Affinia hotel"}, "type": "Feature"}, {"geometry": {"coordinates": [-122.33749399999999, 47.618072999999995], "type": "Point"}, "properties": {"marker-symbol": "circle-15", "title": "Pan Pacific Seattle"}, "type": "Feature"}, {"geometry": {"coordinates": [-87.622765, 41.895947], "type": "Point"}, "properties": {"marker-symbol": "circle-15", "title": "Cambria Chicago Magnificent Mile"}, "type": "Feature"}, {"geometry": {"coordinates": [-73.97429, 40.754055], "type": "Point"}, "properties": {"marker-symbol": "circle-15", "title": "Vermilion"}, "type": "Feature"}, {"geometry": {"coordinates": [-91.18796, 30.448084], "type": "Point"}, "properties": {"marker-symbol": "circle-15", "title": "WATERMARK Baton Rouge, Autograph Collection"}, "type": "Feature"}, {"geometry": {"coordinates": [-73.98205, 40.767456], "type": "Point"}, "properties": {"marker-symbol": "circle-15", "title": "Robert"}, "type": "Feature"}, {"geometry": {"coordinates": [-122.51357, 37.522007], "type": "Point"}, "properties": {"marker-symbol": "circle-15", "title": "Seal Cove Inn"}, "type": "Feature"}, {"geometry": {"coordinates": [-70.25690999999999, 43.6551], "type": "Point"}, "properties": {"marker-symbol": "circle-15", "title": "Zapoteca Restaurante & Tequileria"}, "type": "Feature"}, {"geometry": {"coordinates": [-117.87481000000001, 33.613083], "type": "Point"}, "properties": {"marker-symbol": "circle-15", "title": "Fig & Olive Newport Beach"}, "type": "Feature"}, {"geometry": {"coordinates": [-73.99254, 40.756434999999996], "type": "Point"}, "properties": {"marker-symbol": "circle-15", "title": "Fairfield Inn & Suites New York Manhattan/Times Square"}, "type": "Feature"}, {"geometry": {"coordinates": [-70.2527, 43.657013], "type": "Point"}, "properties": {"marker-symbol": "circle-15", "title": "Portland Regency Hotel & Spa"}, "type": "Feature"}, {"geometry": {"coordinates": [-73.94745, 40.75195], "type": "Point"},