{"features": [{"geometry": {"coordinates": [-83.326965, 35.76577], "type": "Point"}, "properties": {"marker-symbol": "circle-15", "title": "CLIMB Works - Smoky Mountains"}, "type": "Feature"}, {"geometry": {"coordinates": [-115.01975, 36.278909999999996], "type": "Point"}, "properties": {"marker-symbol": "circle-15", "title": "Sun Buggy & ATV Fun Rentals"}, "type": "Feature"}, {"geometry": {"coordinates": [-82.54987, 27.403101], "type": "Point"}, "properties": {"marker-symbol": "circle-15", "title": "Sarasota Biplane Adventures"}, "type": "Feature"}, {"geometry": {"coordinates": [-115.45626999999999, 36.21139], "type": "Point"}, "properties": {"marker-symbol": "circle-15", "title": "Red Rock Canyon National Conservation Area"}, "type": "Feature"}, {"geometry": {"coordinates": [-122.25018, 37.509434000000006], "type": "Point"}, "properties": {"marker-symbol": "circle-15", "title": "Bay Aerial San Francisco Helicopter Tours"}, "type": "Feature"}, {"geometry": {"coordinates": [-75.077934, 38.693622999999995], "type": "Point"}, "properties": {"marker-symbol": "circle-15", "title": "Delmarva Board Sport Adventures"}, "type": "Feature"}, {"geometry": {"coordinates": [-110.819336, 32.315865], "type": "Point"}, "properties": {"marker-symbol": "circle-15", "title": "Sabino Canyon"}, "type": "Feature"}, {"geometry": {"coordinates": [-116.31788, 45.41758], "type": "Point"}, "properties": {"marker-symbol": "circle-15", "title": "H2O Idaho - Day Tours"}, "type": "Feature"}, {"geometry": {"coordinates": [-109.54471000000001, 38.57659], "type": "Point"}, "properties": {"marker-symbol": "circle-15", "title": "Moab Canyon Tours"}, "type": "Feature"}, {"geometry": {"coordinates": [-105.29951000000001, 39.540234000000005], "type": "Point"}, "properties": {"marker-symbol": "circle-15", "title": "Denver Adventures"}, "type": "Feature"}, {"geometry": {"coordinates": [-156.44046, 20.65232], "type": "Point"}, "properties": {"marker-symbol": "circle-15", "title": "Aloha Kayaks Maui"}, "type": "Feature"}, {"geometry": {"coordinates": [-124.21145, 43.559795], "type": "Point"}, "properties": {"marker-symbol": "circle-15", "title": "Spinreel Dune Buggy and ATV Rental"}, "type": "Feature"}, {"geometry": {"coordinates": [-158.1973, 21.448309], "type": "Point"}, "properties": {"marker-symbol": "circle-15", "title": "Hawaii Nautical"}, "type": "Feature"}, {"geometry": {"coordinates": [-156.45265, 20.73239], "type": "Point"}, "properties": {"marker-symbol": "circle-15", "title": "Aloha Surf School Maui"}, "type": "Feature"}, {"geometry": {"coordinates": [-73.96342, 40.77942], "type": "Point"}, "properties": {"marker-symbol": "circle-15", "title": "In Food We Trust"}, "type": "Feature"}, {"geometry": {"coordinates": [-156.5117, 20.7918], "type": "Point"}, "properties": {"marker-symbol": "circle-15", "title": "Malolo Molokini Snorkeling Tour"}, "type": "Feature"}, {"geometry": {"coordinates": [-111.60654, 37.770286999999996], "type": "Point"}, "properties": {"marker-symbol": "circle-15", "title": "Utah Canyon Outdoors"}, "type": "Feature"}, {"geometry": {"coordinates": [-156.44543000000002, 20.891920000000002], "type": "Point"}, "properties": {"marker-symbol": "circle-15", "title": "Maui Island Taxi Tour"}, "type": "Feature"}, {"geometry": {"coordinates": [-111.10195, 44.661915], "type": "Point"}, "properties": {"marker-symbol": "circle-15", "title": "Yellowstone Adventures Day Tours"}, "type": "Feature"}, {"geometry": {"coordinates": [-117.98865, 33.64799], "type": "Point"}, "properties": {"marker-symbol": "circle-15", "title": "Learn To Surf"}, "type": "Feature"}, {"geometry": {"coordinates": [-70.25397, 43.64237], "type": "Point"}, "properties": {"marker-symbol": "circle-15", "title": "Teazer Charters"}, "type": "Feature"}, {"geometry": {"coordinates": [-81.69614399999999, 41.51041], "type": "Point"}, "properties": {"marker-symbol": "circle-15", "title": "Cleveland Bike Tours"}, "type": "Feature"}, {"geometry": {"coordinates": [-106.4794, 35.190870000000004], "type": "Point"}, "properties": {"marker-symbol": "circle-15", "title": "Sandia Peak Tramway"}, "type": "Feature"}, {"geometry": {"coordinates": [-157.6948, 21.273360999999998], "type": "Point"}, "properties": {"marker-symbol": "circle-15", "title": "Snorkelfest Snorkel Hanauma Bay"}, "type": "Feature"}, {"geometry": {"coordinates": [-115.42818, 36.135834], "type": "Point"}, "properties": {"marker-symbol": "circle-15", "title": "Red Electric Bike Tours"}, "type": "Feature"}, {"geometry": {"coordinates": [-80.50029, 33.551109999999994], "type": "Point"}, "properties": {"marker-symbol": "circle-15", "title": "Fisheagle Nature Adventures"}, "type": "Feature"}, {"geometry": {"coordinates": [0.0, 0.0], "type": "Point"}, "properties": {"marker-symbol": "circle-15", "title": "Grand Canyon North Rim Mule Rides -Tour"}, "type": "Feature"}, {"geometry": {"coordinates": [-158.0335, 21.67839], "type": "Point"}, "properties": {"marker-symbol": "circle-15", "title": "North Shore Surf Lessons"}, "type": "Feature"}, {"geometry": {"coordinates": [-156.65416000000002, 20.99933], "type": "Point"}, "properties": {"marker-symbol": "circle-15", "title": "Kapalua Ziplines"}, "type": "Feature"}, {"geometry": {"coordinates": [-82.82899, 35.892025], "type": "Point"}, "properties": {"marker-symbol": "circle-15", "title": "Hot Springs Rafting Co."}, "type": "Feature"}, {"geometry": {"coordinates": [-111.92271000000001, 33.61861], "type": "Point"}, "properties": {"marker-symbol": "circle-15", "title": "Arizona Rafting by Wilderness Aware"}, "type": "Feature"}, {"geometry": {"coordinates": [0.0, 0.0], "type": "Point"}, "properties": {"marker-symbol": "circle-15", "title": "Cowboy Way Adventures"}, "type": "Feature"}, {"geometry": {"coordinates": [-120.06741000000001, 34.510124], "type": "Point"}, "properties": {"marker-symbol": "circle-15", "title": "Circle Bar B Guest Ranch"}, "type": "Feature"}, {"geometry": {"coordinates": [-105.84853000000001, 40.27603], "type": "Point"}, "properties": {"marker-symbol": "circle-15", "title": "Winding River Resort Stables"}, "type": "Feature"}, {"geometry": {"coordinates": [-118.41861999999999, 33.360462], "type": "Point"}, "properties": {"marker-symbol": "circle-15", "title": "Cape Canyon Expedition"}, "type": "Feature"}, {"geometry": {"coordinates": [-110.07184, 31.7144], "type": "Point"}, "properties": {"marker-symbol": "circle-15", "title": "Katie's Cozy Cabins"}, "type": "Feature"}, {"geometry": {"coordinates": [-111.76071999999999, 34.870670000000004], "type": "Point"}, "properties": {"marker-symbol": "circle-15", "title": "Sedona Offroad Adventures"}, "type": "Feature"}, {"geometry": {"coordinates": [-74.0094, 40.701824], "type": "Point"}, "properties": {"marker-symbol": "circle-15", "title": "New York Helicopter"}, "type": "Feature"}, {"geometry": {"coordinates": [-80.130264, 25.78921], "type": "Point"}, "properties": {"marker-symbol": "circle-15", "title": "South Beach Parasail"}, "type": "Feature"}, {"geometry": {"coordinates": [-157.82484, 21.27649], "type": "Point"}, "properties": {"marker-symbol": "circle-15", "title": "Big Wave Dave Surf Co"}, "type": "Feature"}, {"geometry": {"coordinates": [-155.82542, 20.232210000000002], "type": "Point"}, "properties": {"marker-symbol": "circle-15", "title": "Kohala Zipline"}, "type": "Feature"}, {"geometry": {"coordinates": [-156.02614, 19.674282], "type": "Point"}, "properties": {"marker-symbol": "circle-15", "title": "Kaloko-Honokohau National Historical Park"}, "type": "Feature"}, {"geometry": {"coordinates": [-83.540146, 35.864014000000005], "type": "Point"}, "properties": {"marker-symbol": "circle-15", "title": "Hike The Smokys"}, "type": "Feature"}, {"geometry": {"coordinates": [-106.82581, 40.472409999999996], "type": "Point"}, "properties": {"marker-symbol": "circle-15", "title": "Mountain Sports Kayak School"}, "type": "Feature"}, {"geometry": {"coordinates": [-81.94679000000001, 26.450067999999998], "type": "Point"}, "properties": {"marker-symbol": "circle-15", "title": "Ranalli Parasail"}, "type": "Feature"}, {"geometry": {"coordinates": [-110.61247, 44.73236], "type": "Point"}, "properties": {"marker-symbol": "circle-15", "title": "Yellowstone River"}, "type": "Feature"}, {"geometry": {"coordinates": [0.0, 0.0], "type": "Point"}, "properties": {"marker-symbol": "circle-15", "title": "SFMTA"}, "type": "Feature"}, {"geometry": {"coordinates": [-83.47111, 35.813347], "type": "Point"}, "properties": {"marker-symbol": "circle-15", "title": "Legacy Mountain Ziplines"}, "type": "Feature"}, {"geometry": {"coordinates": [-107.88076000000001, 37.27383], "type": "Point"}, "properties": {"marker-symbol": "circle-15", "title": "Duranglers Flies and Supplies"}, "type": "Feature"}, {"geometry": {"coordinates": [-103.50776, 46.931763000000004], "type": "Point"}, "properties": {"marker-symbol": "circle-15", "title": "Theodore Roosevelt National Park"}, "type": "Feature"}, {"geometry": {"coordinates": [-68.782875, 44.80815], "type": "Point"}, "properties": {"marker-symbol": "circle-15", "title": "SK Tours Of Maine, LLC"}, "type": "Feature"}, {"geometry": {"coordinates": [-156.51064, 20.792156], "type": "Point"}, "properties": {"marker-symbol": "circle-15", "title": "Pride of Maui"}, "type": "Feature"}, {"geometry": {"coordinates": [-118.33686999999999, 33.33051], "type": "Point"}, "properties": {"marker-symbol": "circle-15", "title": "Hermit Gulch Trail Loop"}, "type": "Feature"}, {"geometry": {"coordinates": [-70.07301, 42.0151], "type": "Point"}, "properties": {"marker-symbol": "circle-15", "title": "Reel Deal Fishing Charters"}, "type": "Feature"}, {"geometry": {"coordinates": [-87.62782, 41.883305], "type": "Point"}, "properties": {"marker-symbol": "circle-15", "title": "Chicago Greeter"}, "type": "Feature"}, {"geometry": {"coordinates": [-105.56877, 36.402237], "type": "Point"}, "properties": {"marker-symbol": "circle-15", "title": "Heritage Inspirations"}, "type": "Feature"}, {"geometry": {"coordinates": [-118.32648, 33.348778], "type": "Point"}, "properties": {"marker-symbol": "circle-15", "title": "Catalina Island Golf Cart Rentals and Tours"}, "type": "Feature"}, {"geometry": {"coordinates": [-112.14497, 36.051968], "type": "Point"}, "properties": {"marker-symbol": "circle-15", "title": "Way Far Out Adventures, LLC."}, "type": "Feature"}, {"geometry": {"coordinates": [-115.22485, 36.145958], "type": "Point"}, "properties": {"marker-symbol": "circle-15", "title": "GC Flight"}, "type": "Feature"}, {"geometry": {"coordinates": [-89.787285, 43.62612], "type": "Point"}, "properties": {"marker-symbol": "circle-15", "title": "Vertical Illusions"}, "type": "Feature"}, {"geometry": {"coordinates": [-112.096375, 33.68962], "type": "Point"}, "properties": {"marker-symbol": "circle-15", "title": "Rainbow Ryders, Inc. Hot Air Balloon Company"}, "type": "Feature"}, {"geometry": {"coordinates": [-117.26971, 32.850037], "type": "Point"}, "properties": {"marker-symbol": "circle-15", "title": "Hike Bike Kayak San Diego"}, "type": "Feature"}, {"geometry": {"coordinates": [-112.43633, 34.5812], "type": "Point"}, "properties": {"marker-symbol": "circle-15", "title": "A Haunting Experience Tours"}, "type": "Feature"}, {"geometry": {"coordinates": [-158.24152, 21.553864], "type": "Point"}, "properties": {"marker-symbol": "circle-15", "title": "Ka'ena Point State Park"}, "type": "Feature"}, {"geometry": {"coordinates": [-111.46028000000001, 36.9192], "type": "Point"}, "properties": {"marker-symbol": "circle-15", "title": "Slot Canyon Hummer Adventures"}, "type": "Feature"}, {"geometry": {"coordinates": [-111.20426, 40.811783], "type": "Point"}, "properties": {"marker-symbol": "circle-15", "title": "North Forty Escapes"}, "type": "Feature"}, {"geometry": {"coordinates": [-111.939644, 33.744797], "type": "Point"}, "properties": {"marker-symbol": "circle-15", "title": "Way out West, Off Road Expeditions"}, "type": "Feature"}, {"geometry": {"coordinates": [-114.00327, 48.480083], "type": "Point"}, "properties": {"marker-symbol": "circle-15", "title": "Glacier Guides and Montana Raft"}, "type": "Feature"}, {"geometry": {"coordinates": [-82.59246999999999, 28.88285], "type": "Point"}, "properties": {"marker-symbol": "circle-15", "title": "Swimming With The Manatees"}, "type": "Feature"}, {"geometry": {"coordinates": [-78.88849, 33.716324], "type": "Point"}, "properties": {"marker-symbol": "circle-15", "title": "Palace Theatre"}, "type": "Feature"}, {"geometry": {"coordinates": [-80.91747, 29.03264], "type": "Point"}, "properties": {"marker-symbol": "circle-15", "title": "Paddleboard New Smyrna"}, "type": "Feature"}, {"geometry": {"coordinates": [-82.55532, 35.595238], "type": "Point"}, "properties": {"marker-symbol": "circle-15", "title": "Asheville by Foot - Walking Tours"}, "type": "Feature"}, {"geometry": {"coordinates": [-122.39806999999999, 47.666706], "type": "Point"}, "properties": {"marker-symbol": "circle-15", "title": "Hiram M. Chittenden Locks"}, "type": "Feature"}, {"geometry": {"coordinates": [-112.53585, 46.01927], "type": "Point"}, "properties": {"marker-symbol": "circle-15", "title": "Montana ATV Adventures"}, "type": "Feature"}, {"geometry": {"coordinates": [-97.89801, 30.416366999999997], "type": "Point"}, "properties": {"marker-symbol": "circle-15", "title": "Austin Sailboat Rentals"}, "type": "Feature"}, {"geometry": {"coordinates": [-105.405, 36.707325], "type": "Point"}, "properties": {"marker-symbol": "circle-15", "title": "New Mexico Adventure Company"}, "type": "Feature"}, {"geometry": {"coordinates": [-118.87512, 34.038115999999995], "type": "Point"}, "properties": {"marker-symbol": "circle-15", "title": "El Matador State Beach"}, "type": "Feature"}, {"geometry": {"coordinates": [-122.41813, 37.80744], "type": "Point"}, "properties": {"marker-symbol": "circle-15", "title": "City Segway Tours San Francisco"}, "type": "Feature"}, {"geometry": {"coordinates": [-110.72458999999999, 43.749886], "type": "Point"}, "properties": {"marker-symbol": "circle-15", "title": "Grand Teton"}, "type": "Feature"}, {"geometry": {"coordinates": [-110.72126999999999, 43.342484000000006], "type": "Point"}, "properties": {"marker-symbol": "circle-15", "title": "A-OK Corral / Horse Creek Ranch"}, "type": "Feature"}, {"geometry": {"coordinates": [-93.223145, 36.781593], "type": "Point"}, "properties": {"marker-symbol": "circle-15", "title": "Branson Zipline and Canopy Tours"}, "type": "Feature"}, {"geometry": {"coordinates": [-83.0239, 40.126225], "type": "Point"}, "properties": {"marker-symbol": "circle-15", "title": "ZipZone Canopy Tours"}, "type": "Feature"}, {"geometry": {"coordinates": [-92.87626999999999, 34.4006], "type": "Point"}, "properties": {"marker-symbol": "circle-15", "title": "Zip Lines at Ouachita Bend"}, "type": "Feature"}, {"geometry": {"coordinates": [-157.82797, 21.276792999999998], "type": "Point"}, "properties": {"marker-symbol": "circle-15", "title": "Faith Surf School"}, "type": "Feature"}, {"geometry": {"coordinates": [-73.97674599999999, 40.762203], "type": "Point"}, "properties": {"marker-symbol": "circle-15", "title": "Central Park Tours & Bike Rentals"}, "type": "Feature"}, {"geometry": {"coordinates": [-156.30571, 20.884193], "type": "Point"}, "properties": {"marker-symbol": "circle-15", "title": "Northshore Zipline Co."}, "type": "Feature"}, {"geometry": {"coordinates": [-111.78175, 34.86246], "type": "Point"}, "properties": {"marker-symbol": "circle-15", "title": "Arizona ATV Adventures"}, "type": "Feature"}, {"geometry": {"coordinates": [-74.95799, 43.718212], "type": "Point"}, "properties": {"marker-symbol": "circle-15", "title": "Old Forge Camping Resort"}, "type": "Feature"}, {"geometry": {"coordinates": [-112.1517, 37.69231], "type": "Point"}, "properties": {"marker-symbol": "circle-15", "title": "Red Canyon Trail Rides"}, "type": "Feature"}, {"geometry": {"coordinates": [-124.11713, 43.953945000000004], "type": "Point"}, "properties": {"marker-symbol": "circle-15", "title": "Sandland Adventures"}, "type": "Feature"}, {"geometry": {"coordinates": [-155.9596, 19.557547], "type": "Point"}, "properties": {"marker-symbol": "circle-15", "title": "Ocean Safaris Kayak Adventures"}, "type": "Feature"}, {"geometry": {"coordinates": [-91.67333, 47.0194], "type": "Point"}, "properties": {"marker-symbol": "circle-15", "title": "Castle Danger Brewery"}, "type": "Feature"}, {"geometry": {"coordinates": [0.0, 0.0], "type": "Point"}, "properties": {"marker-symbol": "circle-15", "title": "Brundage Mountain"}, "type": "Feature"}, {"geometry": {"coordinates": [-85.50229, 43.05128], "type": "Point"}, "properties": {"marker-symbol": "circle-15", "title": "Cannonsburg Ski & Ride Area"}, "type": "Feature"}, {"geometry": {"coordinates": [-149.89215, 61.21856700000001], "type": "Point"}, "properties": {"marker-symbol": "circle-15", "title": "Dallas Seavey's Alaska Sled Dog Tours - Day Tours"}, "type": "Feature"}, {"geometry": {"coordinates": [-87.609146, 41.892056], "type": "Point"}, "properties": {"marker-symbol": "circle-15", "title": "Shoreline Sightseeing"}, "type": "Feature"}, {"geometry": {"coordinates": [0.0, 0.0], "type": "Point"}, "properties": {"marker-symbol": "circle-15", "title": "Liquid Alaska Tours"}, "type": "Feature"}, {"geometry": {"coordinates": [-105.52089, 40.376796999999996], "type": "Point"}, "properties": {"marker-symbol": "circle-15", "title": "Rocky Mountain Rush"}, "type": "Feature"}, {"geometry": {"coordinates": [-155.99896, 19.79976], "type": "Point"}, "properties": {"marker-symbol": "circle-15", "title": "Kiholo Bay"}, "type": "Feature"}, {"geometry": {"coordinates": [-112.97925, 37.20758], "type": "Point"}, "properties": {"marker-symbol": "circle-15", "title": "Pa'rus Trail"}, "type": "Feature"}, {"geometry": {"coordinates": [-71.674965, 44.038963], "type": "Point"}, "properties": {"marker-symbol": "circle-15", "title": "Alpine Adventures Outdoor Recreation"}, "type": "Feature"}, {"geometry": {"coordinates": [-112.15125, 36.07325], "type": "Point"}, "properties": {"marker-symbol": "circle-15", "title": "Powell Point"}, "type": "Feature"}, {"geometry": {"coordinates": [-83.03121, 29.136459999999996], "type": "Point"}, "properties": {"marker-symbol": "circle-15", "title": "Southern Salt Charters"}, "type": "Feature"}, {"geometry": {"coordinates": [-90.09897, 29.780078999999997], "type": "Point"}, "properties": {"marker-symbol": "circle-15", "title": "Jean Lafitte Swamp Tours"}, "type": "Feature"}, {"geometry": {"coordinates": [-85.30866, 29.814890000000002], "type": "Point"}, "properties": {"marker-symbol": "circle-15", "title": "Port Saint Joe Marina"}, "type": "Feature"}, {"geometry": {"coordinates": [-156.61539, 20.809520000000003], "type": "Point"}, "properties": {"marker-symbol": "circle-15", "title": "Kayak Olowalu"}, "type": "Feature"}, {"geometry": {"coordinates": [-111.51241999999999, 36.87931], "type": "Point"}, "properties": {"marker-symbol": "circle-15", "title": "Horseshoe Bend"}, "type": "Feature"}, {"geometry": {"coordinates": [-84.46433, 34.938309999999994], "type": "Point"}, "properties": {"marker-symbol": "circle-15", "title": "The Blue Ridge Canopy Adventure"}, "type": "Feature"}, {"geometry": {"coordinates": [-85.62510999999999, 34.391999999999996], "type": "Point"}, "properties": {"marker-symbol": "circle-15", "title": "Little River Canyon National Preserve"}, "type": "Feature"}, {"geometry": {"coordinates": [-156.45366, 20.73583], "type": "Point"}, "properties": {"marker-symbol": "circle-15", "title": "Boss Frog's Cycles"}, "type": "Feature"}, {"geometry": {"coordinates": [-122.45381, 38.214855], "type": "Point"}, "properties": {"marker-symbol": "circle-15", "title": "Edge of the World Tours"}, "type": "Feature"}, {"geometry": {"coordinates": [-158.04703999999998, 21.30592], "type": "Point"}, "properties": {"marker-symbol": "circle-15", "title": "Barbers Point Beach Cottages"}, "type": "Feature"}, {"geometry": {"coordinates": [-114.55547, 35.73878], "type": "Point"}, "properties": {"marker-symbol": "circle-15", "title": "Las Vegas ATVs"}, "type": "Feature"}, {"geometry": {"coordinates": [-158.0705, 21.6188], "type": "Point"}, "properties": {"marker-symbol": "circle-15", "title": "The Surf Bus"}, "type": "Feature"}, {"geometry": {"coordinates": [-115.17523, 36.105125], "type": "Point"}, "properties": {"marker-symbol": "circle-15", "title": "Minus 5 Ice Bar - Monte Carlo"}, "type": "Feature"}, {"geometry": {"coordinates": [-73.98638000000001, 40.73611], "type": "Point"}, "properties": {"marker-symbol": "circle-15", "title": "Outside In Walking Tours"}, "type": "Feature"}, {"geometry": {"coordinates": [-93.41523000000001, 36.63964], "type": "Point"}, "properties": {"marker-symbol": "circle-15", "title": "Table Rock Guide Service"}, "type": "Feature"}, {"geometry": {"coordinates": [-119.29601000000001, 34.284863], "type": "Point"}, "properties": {"marker-symbol": "circle-15", "title": "Serra Cross Park"}, "type": "Feature"}, {"geometry": {"coordinates": [-122.41601999999999, 37.80583], "type": "Point"}, "properties": {"marker-symbol": "circle-15", "title": "Outspoke'n Bike Rentals"}, "type": "Feature"}, {"geometry": {"coordinates": [-69.98035, 45.31338], "type": "Point"}, "properties": {"marker-symbol": "circle-15", "title": "Dead River Expeditions"}, "type": "Feature"}, {"geometry": {"coordinates": [-111.37473999999999, 36.862567999999996], "type": "Point"}, "properties": {"marker-symbol": "circle-15", "title": "Upper Antelope Canyon"}, "type": "Feature"}, {"geometry": {"coordinates": [-107.010345, 37.266822999999995], "type": "Point"}, "properties": {"marker-symbol": "circle-15", "title": "San Juan River Walk"}, "type": "Feature"}, {"geometry": {"coordinates": [-105.82347, 39.95785], "type": "Point"}, "properties": {"marker-symbol": "circle-15", "title": "Grand Adventure Balloon Tours"}, "type": "Feature"}, {"geometry": {"coordinates": [-86.4995, 30.392459999999996], "type": "Point"}, "properties": {"marker-symbol": "circle-15", "title": "Just Chute Me Parasail"}, "type": "Feature"}, {"geometry": {"coordinates": [-82.826385, 27.97679], "type": "Point"}, "properties": {"marker-symbol": "circle-15", "title": "Paddle Out Adventures"}, "type": "Feature"}, {"geometry": {"coordinates": [-114.74191, 36.014957], "type": "Point"}, "properties": {"marker-symbol": "circle-15", "title": "Mike O'Callaghan-Pat Tillman Memorial Bridge"}, "type": "Feature"}, {"geometry": {"coordinates": [-112.13328999999999, 35.958054], "type": "Point"}, "properties": {"marker-symbol": "circle-15", "title": "Maverick Helicopters"}, "type": "Feature"}, {"geometry": {"coordinates": [-123.26348999999999, 44.5751], "type": "Point"}, "properties": {"marker-symbol": "circle-15", "title": "Cascadia Expeditions"}, "type": "Feature"}, {"geometry": {"coordinates": [-120.63784, 35.1402], "type": "Point"}, "properties": {"marker-symbol": "circle-15", "title": "Pismo Beach Surf Shop"}, "type": "Feature"}, {"geometry": {"coordinates": [-158.12346000000002, 21.335188], "type": "Point"}, "properties": {"marker-symbol": "circle-15", "title": "Ko Olina Lagoons"}, "type": "Feature"}, {"geometry": {"coordinates": [-105.94847, 35.68391], "type": "Point"}, "properties": {"marker-symbol": "circle-15", "title": "Santa Fe Jeep Tours"}, "type": "Feature"}, {"geometry": {"coordinates": [-87.90897, 43.033553999999995], "type": "Point"}, "properties": {"marker-symbol": "circle-15", "title": "Save Milwaukee"}, "type": "Feature"}, {"geometry": {"coordinates": [-83.39192, 35.829765], "type": "Point"}, "properties": {"marker-symbol": "circle-15", "title": "Foxfire Mountain Adventures"}, "type": "Feature"}, {"geometry": {"coordinates": [-114.47803, 42.60604], "type": "Point"}, "properties": {"marker-symbol": "circle-15", "title": "Zip The Snake"}, "type": "Feature"}, {"geometry": {"coordinates": [-81.89403, 26.530209999999997], "type": "Point"}, "properties": {"marker-symbol": "circle-15", "title": "Paddleboard SWFL"}, "type": "Feature"}, {"geometry": {"coordinates": [-120.69135, 47.08717], "type": "Point"}, "properties": {"marker-symbol": "circle-15", "title": "Rill Adventures"}, "type": "Feature"}, {"geometry": {"coordinates": [-111.5012, 41.028526], "type": "Point"}, "properties": {"marker-symbol": "circle-15", "title": "Destination Sports & Adventures"}, "type": "Feature"}, {"geometry": {"coordinates": [-73.98321, 40.762394], "type": "Point"}, "properties": {"marker-symbol": "circle-15", "title": "Bike Rentals and Tours"}, "type": "Feature"}, {"geometry": {"coordinates": [-148.89807, 63.746173999999996], "type": "Point"}, "properties": {"marker-symbol": "circle-15", "title": "Stampede Aviation"}, "type": "Feature"}, {"geometry": {"coordinates": [-105.87568, 40.74287], "type": "Point"}, "properties": {"marker-symbol": "circle-15", "title": "Rawah Ranch"}, "type": "Feature"}, {"geometry": {"coordinates": [0.0, 0.0], "type": "Point"}, "properties": {"marker-symbol": "circle-15", "title": "BK Adventures"}, "type": "Feature"}, {"geometry": {"coordinates": [-159.35435, 22.062323000000003], "type": "Point"}, "properties": {"marker-symbol": "circle-15", "title": "Sleeping Giant Trail"}, "type": "Feature"}, {"geometry": {"coordinates": [-111.79227, 34.848232], "type": "Point"}, "properties": {"marker-symbol": "circle-15", "title": "Sedona Air Tours"}, "type": "Feature"}, {"geometry": {"coordinates": [-81.756996, 24.553947], "type": "Point"}, "properties": {"marker-symbol": "circle-15", "title": "Key West Seaplane Adventures"}, "type": "Feature"}, {"geometry": {"coordinates": [-107.35381000000001, 39.55972], "type": "Point"}, "properties": {"marker-symbol": "circle-15", "title": "Whitewater Rafting, LLC"}, "type": "Feature"}, {"geometry": {"coordinates": [-85.74812, 30.15008], "type": "Point"}, "properties": {"marker-symbol": "circle-15", "title": "Adventures at Sea"}, "type": "Feature"}, {"geometry": {"coordinates": [-70.18588000000001, 42.0516], "type": "Point"}, "properties": {"marker-symbol": "circle-15", "title": "Dolphin Fleet Whale Watch"}, "type": "Feature"}, {"geometry": {"coordinates": [-156.45383, 20.744970000000002], "type": "Point"}, "properties": {"marker-symbol": "circle-15", "title": "Maui Stand Up Paddle Boarding"}, "type": "Feature"}, {"geometry": {"coordinates": [0.0, 0.0], "type": "Point"}, "properties": {"marker-symbol": "circle-15", "title": "Fourmile Falls Trail"}, "type": "Feature"}, {"geometry": {"coordinates": [-115.17286000000001, 36.114613], "type": "Point"}, "properties": {"marker-symbol": "circle-15", "title": "Grand Canyon Destinations"}, "type": "Feature"}, {"geometry": {"coordinates": [-81.76938, 24.56896], "type": "Point"}, "properties": {"marker-symbol": "circle-15", "title": "Ibis Bay Paddle Sports"}, "type": "Feature"}, {"geometry": {"coordinates": [-109.85292, 44.458977000000004], "type": "Point"}, "properties": {"marker-symbol": "circle-15", "title": "Creekside Lodge at Yellowstone"}, "type": "Feature"}, {"geometry": {"coordinates": [0.0, 0.0], "type": "Point"}, "properties": {"marker-symbol": "circle-15", "title": "Music of Denali Dinner Theater"}, "type": "Feature"}, {"geometry": {"coordinates": [-75.61228, 35.899628], "type": "Point"}, "properties": {"marker-symbol": "circle-15", "title": "Outer Banks Adventures"}, "type": "Feature"}, {"geometry": {"coordinates": [-115.17402, 36.094592999999996], "type": "Point"}, "properties": {"marker-symbol": "circle-15", "title": "Jabbawockeez"}, "type": "Feature"}, {"geometry": {"coordinates": [-159.34512, 22.05601], "type": "Point"}, "properties": {"marker-symbol": "circle-15", "title": "Island Fishing Kauai"}, "type": "Feature"}, {"geometry": {"coordinates": [-114.85403400000001, 35.97533], "type": "Point"}, "properties": {"marker-symbol": "circle-15", "title": "Flightlinez Bootleg Canyon"}, "type": "Feature"}, {"geometry": {"coordinates": [-115.17243, 36.113068], "type": "Point"}, "properties": {"marker-symbol": "circle-15", "title": "One Day Tours"}, "type": "Feature"}, {"geometry": {"coordinates": [-109.29383, 33.0474], "type": "Point"}, "properties": {"marker-symbol": "circle-15", "title": "Coronado Trail"}, "type": "Feature"}, {"geometry": {"coordinates": [-79.031525, 33.558155], "type": "Point"}, "properties": {"marker-symbol": "circle-15", "title": "Catch-1 Charters - Capt. Shannon's Fishing Charters"}, "type": "Feature"}, {"geometry": {"coordinates": [0.0, 0.0], "type": "Point"}, "properties": {"marker-symbol": "circle-15", "title": "Island Style Surf School"}, "type": "Feature"}, {"geometry": {"coordinates": [-156.45406, 20.744766000000002], "type": "Point"}, "properties": {"marker-symbol": "circle-15", "title": "Hawaiian Paddle Sports"}, "type": "Feature"}, {"geometry": {"coordinates": [-92.52754, 38.07721], "type": "Point"}, "properties": {"marker-symbol": "circle-15", "title": "Swinging Bridge"}, "type": "Feature"}, {"geometry": {"coordinates": [-122.47868000000001, 37.819946], "type": "Point"}, "properties": {"marker-symbol": "circle-15", "title": "Golden Gate Bridge"}, "type": "Feature"}, {"geometry": {"coordinates": [0.0, 0.0], "type": "Point"}, "properties": {"marker-symbol": "circle-15", "title": "Fort Worth Tours"}, "type": "Feature"}, {"geometry": {"coordinates": [-90.84985, 32.34655], "type": "Point"}, "properties": {"marker-symbol": "circle-15", "title": "Vicksburg National Military Park"}, "type": "Feature"}, {"geometry": {"coordinates": [-111.93348, 33.479729999999996], "type": "Point"}, "properties": {"marker-symbol": "circle-15", "title": "Salt River Rafting"}, "type": "Feature"}, {"geometry": {"coordinates": [-77.44776999999999, 39.05243], "type": "Point"}, "properties": {"marker-symbol": "circle-15", "title": "iFLY Loudoun"}, "type": "Feature"}, {"geometry": {"coordinates": [-84.01964, 34.17787], "type": "Point"}, "properties": {"marker-symbol": "circle-15", "title": "Lake Lanier Canopy Tours"}, "type": "Feature"}, {"geometry": {"coordinates": [-122.50011, 37.864613], "type": "Point"}, "properties": {"marker-symbol": "circle-15", "title": "Stoked SF"}, "type": "Feature"}, {"geometry": {"coordinates": [-111.994, 33.40919], "type": "Point"}, "properties": {"marker-symbol": "circle-15", "title": "Stellar Adventures"}, "type": "Feature"}, {"geometry": {"coordinates": [-156.90057, 20.914894], "type": "Point"}, "properties": {"marker-symbol": "circle-15", "title": "Shipwreck Beach"}, "type": "Feature"}, {"geometry": {"coordinates": [-81.71835, 25.912879999999998], "type": "Point"}, "properties": {"marker-symbol": "circle-15", "title": "Breakwater Adventures"}, "type": "Feature"}, {"geometry": {"coordinates": [-117.13908, 32.810337], "type": "Point"}, "properties": {"marker-symbol": "circle-15", "title": "San Diego Sky Tours"}, "type": "Feature"}, {"geometry": {"coordinates": [-75.97784, 36.83148], "type": "Point"}, "properties": {"marker-symbol": "circle-15", "title": "Rudee Inlet Stand Up Paddle"}, "type": "Feature"}, {"geometry": {"coordinates": [-74.23984, 39.56436], "type": "Point"}, "properties": {"marker-symbol": "circle-15", "title": "South End Surf 'N Paddle"}, "type": "Feature"}, {"geometry": {"coordinates": [-122.898766, 47.05198], "type": "Point"}, "properties": {"marker-symbol": "circle-15", "title": "Mystic Journeys"}, "type": "Feature"}, {"geometry": {"coordinates": [-83.57903, 35.8173], "type": "Point"}, "properties": {"marker-symbol": "circle-15", "title": "Bluff Mountain Adventures"}, "type": "Feature"}, {"geometry": {"coordinates": [0.0, 0.0], "type": "Point"}, "properties": {"marker-symbol": "circle-15", "title": "Paddle Moab - Day Tours"}, "type": "Feature"}, {"geometry": {"coordinates": [-105.10046000000001, 40.6246], "type": "Point"}, "properties": {"marker-symbol": "circle-15", "title": "Mountain Whitewater Descents"}, "type": "Feature"}, {"geometry": {"coordinates": [-74.11714, 40.729465000000005], "type": "Point"}, "properties": {"marker-symbol": "circle-15", "title": "FlyNYON"}, "type": "Feature"}, {"geometry": {"coordinates": [-71.3164, 41.486713], "type": "Point"}, "properties": {"marker-symbol": "circle-15", "title": "Fish'n Tales Adventures"}, "type": "Feature"}, {"geometry": {"coordinates": [-155.22403, 19.435423], "type": "Point"}, "properties": {"marker-symbol": "circle-15", "title": "Epic Lava Tours"}, "type": "Feature"}, {"geometry": {"coordinates": [-156.44405, 20.708857000000002], "type": "Point"}, "properties": {"marker-symbol": "circle-15", "title": "Maui Kamaole"}, "type": "Feature"}, {"geometry": {"coordinates": [-120.85564, 35.25764], "type": "Point"}, "properties": {"marker-symbol": "circle-15", "title": "Bluff Trail"}, "type": "Feature"}, {"geometry": {"coordinates": [-156.69585, 20.92141], "type": "Point"}, "properties": {"marker-symbol": "circle-15", "title": "UFO Parasail"}, "type": "Feature"}, {"geometry": {"coordinates": [-81.757355, 24.562307], "type": "Point"}, "properties": {"marker-symbol": "circle-15", "title": "Kayak Kings Key West"}, "type": "Feature"}, {"geometry": {"coordinates": [-90.06415, 29.958109999999998], "type": "Point"}, "properties": {"marker-symbol": "circle-15", "title": "Ghost City Tours of New Orleans"}, "type": "Feature"}, {"geometry": {"coordinates": [-157.70845, 21.284578], "type": "Point"}, "properties": {"marker-symbol": "circle-15", "title": "Oahu Diving"}, "type": "Feature"}, {"geometry": {"coordinates": [0.0, 0.0], "type": "Point"}, "properties": {"marker-symbol": "circle-15", "title": "Sloan Canyon National Conservation Area"}, "type": "Feature"}, {"geometry": {"coordinates": [-80.37879000000001, 25.166513000000002], "type": "Point"}, "properties": {"marker-symbol": "circle-15", "title": "Key Largo Chamber of Commerce and Visitor Center"}, "type": "Feature"}, {"geometry": {"coordinates": [-123.89461499999999, 46.141709999999996], "type": "Point"}, "properties": {"marker-symbol": "circle-15", "title": "High Life Adventures"}, "type": "Feature"}, {"geometry": {"coordinates": [-90.06730999999999, 29.950762], "type": "Point"}, "properties": {"marker-symbol": "circle-15", "title": "Buzz Nola Bike Tours and Rentals"}, "type": "Feature"}, {"geometry": {"coordinates": [-114.63144, 47.01899], "type": "Point"}, "properties": {"marker-symbol": "circle-15", "title": "Zoo Town Surfers"}, "type": "Feature"}, {"geometry": {"coordinates": [-124.11291000000001, 43.91409], "type": "Point"}, "properties": {"marker-symbol": "circle-15", "title": "Sand Dunes Frontier"}, "type": "Feature"}, {"geometry": {"coordinates": [-78.71597, 38.40542], "type": "Point"}, "properties": {"marker-symbol": "circle-15", "title": "Massanutten Adventures"}, "type": "Feature"}, {"geometry": {"coordinates": [-117.14283, 32.8145], "type": "Point"}, "properties": {"marker-symbol": "circle-15", "title": "Corporate Helicopters"}, "type": "Feature"}, {"geometry": {"coordinates": [-114.73827, 36.016], "type": "Point"}, "properties": {"marker-symbol": "circle-15", "title": "Hoover Dam"}, "type": "Feature"}, {"geometry": {"coordinates": [-106.40417, 39.720546999999996], "type": "Point"}, "properties": {"marker-symbol": "circle-15", "title": "Piney River Ranch"}, "type": "Feature"}, {"geometry": {"coordinates": [0.0, 0.0], "type": "Point"}, "properties": {"marker-symbol": "circle-15", "title": "Mauka Makai Adventures"}, "type": "Feature"}, {"geometry": {"coordinates": [-156.68053, 20.881659], "type": "Point"}, "properties": {"marker-symbol": "circle-15", "title": "Rivers To The Sea"}, "type": "Feature"}, {"geometry": {"coordinates": [-122.36061000000001, 38.40014], "type": "Point"}, "properties": {"marker-symbol": "circle-15", "title": "Spa Villagio"}, "type": "Feature"}, {"geometry": {"coordinates": [-107.05306000000002, 40.455276], "type": "Point"}, "properties": {"marker-symbol": "circle-15", "title": "Grizzle-T Dog & Sled Works"}, "type": "Feature"}, {"geometry": {"coordinates": [-156.64678999999998, 20.902464000000002], "type": "Point"}, "properties": {"marker-symbol": "circle-15", "title": "Skyline Eco-Adventures Zipline Tours"}, "type": "Feature"}, {"geometry": {"coordinates": [-85.68307, 46.442284], "type": "Point"}, "properties": {"marker-symbol": "circle-15", "title": "Nature's Kennel Sled Dog Racing and Adventures"}, "type": "Feature"}, {"geometry": {"coordinates": [-155.45271, 19.687707999999997], "type": "Point"}, "properties": {"marker-symbol": "circle-15", "title": "Saddle Road"}, "type": "Feature"}, {"geometry": {"coordinates": [-81.84478, 28.533540000000002], "type": "Point"}, "properties": {"marker-symbol": "circle-15", "title": "Quest Air Hang Gliding"}, "type": "Feature"}, {"geometry": {"coordinates": [-81.80105, 24.56113], "type": "Point"}, "properties": {"marker-symbol": "circle-15", "title": "Wild Dolphin Adventures"}, "type": "Feature"}, {"geometry": {"coordinates": [-115.17667, 36.0931], "type": "Point"}, "properties": {"marker-symbol": "circle-15", "title": "Michael Jackson ONE by Cirque du Soleil"}, "type": "Feature"}, {"geometry": {"coordinates": [-89.68096, 44.93242], "type": "Point"}, "properties": {"marker-symbol": "circle-15", "title": "Granite Peak"}, "type": "Feature"}, {"geometry": {"coordinates": [-113.71836, 48.696509999999996], "type": "Point"}, "properties": {"marker-symbol": "circle-15", "title": "Going-to-the-Sun Road"}, "type": "Feature"}, {"geometry": {"coordinates": [-124.05286000000001, 44.63007], "type": "Point"}, "properties": {"marker-symbol": "circle-15", "title": "Captain\u2019s Reel Deep Sea Fishing"}, "type": "Feature"}, {"geometry": {"coordinates": [-117.2579, 32.9185], "type": "Point"}, "properties": {"marker-symbol": "circle-15", "title": "Torrey Pines State Natural Reserve"}, "type": "Feature"}, {"geometry": {"coordinates": [-118.44594599999999, 33.973064], "type": "Point"}, "properties": {"marker-symbol": "circle-15", "title": "Marina Del Rey Parasailing"}, "type": "Feature"}, {"geometry": {"coordinates": [-87.14381999999999, 30.33507], "type": "Point"}, "properties": {"marker-symbol": "circle-15", "title": "Bout Time Charters"}, "type": "Feature"}, {"geometry": {"coordinates": [-86.99477399999999, 30.762913], "type": "Point"}, "properties": {"marker-symbol": "circle-15", "title": "Adventures Unlimited Outdoor Center"}, "type": "Feature"}, {"geometry": {"coordinates": [-114.89511999999999, 35.973079999999996], "type": "Point"}, "properties": {"marker-symbol": "circle-15", "title": "Cascata Golf Course"}, "type": "Feature"}, {"geometry": {"coordinates": [-88.8266, 30.406784000000002], "type": "Point"}, "properties": {"marker-symbol": "circle-15", "title": "Front Beach Cottages"}, "type": "Feature"}, {"geometry": {"coordinates": [-111.74277, 40.57113], "type": "Point"}, "properties": {"marker-symbol": "circle-15", "title": "Little Cottonwood Canyon"}, "type": "Feature"}, {"geometry": {"coordinates": [-80.60333, 28.358666999999997], "type": "Point"}, "properties": {"marker-symbol": "circle-15", "title": "Ron Jon Surf School"}, "type": "Feature"}, {"geometry": {"coordinates": [-81.447266, 28.46981], "type": "Point"}, "properties": {"marker-symbol": "circle-15", "title": "International Hot Glass"}, "type": "Feature"}, {"geometry": {"coordinates": [-111.51398, 40.662285], "type": "Point"}, "properties": {"marker-symbol": "circle-15", "title": "White Pine Touring"}, "type": "Feature"}, {"geometry": {"coordinates": [-84.40059000000001, 35.030704], "type": "Point"}, "properties": {"marker-symbol": "circle-15", "title": "Wildwater Rafting - Ocoee"}, "type": "Feature"}, {"geometry": {"coordinates": [0.0, 0.0], "type": "Point"}, "properties": {"marker-symbol": "circle-15", "title": "South Pacific Kayaks"}, "type": "Feature"}, {"geometry": {"coordinates": [-78.89166, 33.68103], "type": "Point"}, "properties": {"marker-symbol": "circle-15", "title": "Ocean Watersports"}, "type": "Feature"}, {"geometry": {"coordinates": [-119.80156000000001, 39.49749], "type": "Point"}, "properties": {"marker-symbol": "circle-15", "title": "Spa Toscana at Peppermill"}, "type": "Feature"}, {"geometry": {"coordinates": [-82.55556, 35.593613], "type": "Point"}, "properties": {"marker-symbol": "circle-15", "title": "LaZoom Haunted Comedy Tour"}, "type": "Feature"}, {"geometry": {"coordinates": [-134.5461, 58.417793], "type": "Point"}, "properties": {"marker-symbol": "circle-15", "title": "Mendenhall Glacier"}, "type": "Feature"}, {"geometry": {"coordinates": [-100.49202, 31.45335], "type": "Point"}, "properties": {"marker-symbol": "circle-15", "title": "San Angelo State Park"}, "type": "Feature"}, {"geometry": {"coordinates": [-117.22981999999999, 38.068709999999996], "type": "Point"}, "properties": {"marker-symbol": "circle-15", "title": "Tonopah Historic Mining Park"}, "type": "Feature"}, {"geometry": {"coordinates": [-77.049995, 38.89606], "type": "Point"}, "properties": {"marker-symbol": "circle-15", "title": "City Segway Tours of Washington, DC"}, "type": "Feature"}, {"geometry": {"coordinates": [-86.51066999999999, 30.384234999999997], "type": "Point"}, "properties": {"marker-symbol": "circle-15", "title": "AJ's Water Adventures"}, "type": "Feature"}, {"geometry": {"coordinates": [0.0, 0.0], "type": "Point"}, "properties": {"marker-symbol": "circle-15", "title": "Terry Boyd Photography Tours"}, "type": "Feature"}, {"geometry": {"coordinates": [-157.92125, 21.640832999999997], "type": "Point"}, "properties": {"marker-symbol": "circle-15", "title": "North Shore Explorers"}, "type": "Feature"}, {"geometry": {"coordinates": [-114.90868999999999, 35.968990000000005], "type": "Point"}, "properties": {"marker-symbol": "circle-15", "title": "Vegas Off Road Experience"}, "type": "Feature"}, {"geometry": {"coordinates": [-105.51923000000001, 39.684585999999996], "type": "Point"}, "properties": {"marker-symbol": "circle-15", "title": "Echo Mountain"}, "type": "Feature"}, {"geometry": {"coordinates": [-156.48767, 20.647], "type": "Point"}, "properties": {"marker-symbol": "circle-15", "title": "Quicksilver Maui Snorkeling Charters"}, "type": "Feature"}, {"geometry": {"coordinates": [-109.47138999999999, 36.129444], "type": "Point"}, "properties": {"marker-symbol": "circle-15", "title": "White House Ruins Trail"}, "type": "Feature"}, {"geometry": {"coordinates": [-77.52069, 37.54891], "type": "Point"}, "properties": {"marker-symbol": "circle-15", "title": "Discover the James Bald Eagle Tours"}, "type": "Feature"}, {"geometry": {"coordinates": [-107.90852, 37.27022], "type": "Point"}, "properties": {"marker-symbol": "circle-15", "title": "Full Blast Adventure Center"}, "type": "Feature"}, {"geometry": {"coordinates": [-84.50829, 39.109770000000005], "type": "Point"}, "properties": {"marker-symbol": "circle-15", "title": "Craft Connection Brewery Tours"}, "type": "Feature"}, {"geometry": {"coordinates": [-81.4879, 28.389390000000002], "type": "Point"}, "properties": {"marker-symbol": "circle-15", "title": "Air Force Fun Helicopter Tours"}, "type": "Feature"}, {"geometry": {"coordinates": [-107.07401999999999, 37.257484000000005], "type": "Point"}, "properties": {"marker-symbol": "circle-15", "title": "Wilderness Journeys Pagosa"}, "type": "Feature"}, {"geometry": {"coordinates": [-157.82877, 21.278732], "type": "Point"}, "properties": {"marker-symbol": "circle-15", "title": "Massimo Sport Hawaii Tours"}, "type": "Feature"}, {"geometry": {"coordinates": [-81.36626, 28.597443], "type": "Point"}, "properties": {"marker-symbol": "circle-15", "title": "Paddleboard Orlando"}, "type": "Feature"}, {"geometry": {"coordinates": [-75.51512, 40.819396999999995], "type": "Point"}, "properties": {"marker-symbol": "circle-15", "title": "Blue Mountain Resort"}, "type": "Feature"}, {"geometry": {"coordinates": [-74.6595, 40.3485], "type": "Point"}, "properties": {"marker-symbol": "circle-15", "title": "Princeton Tour Company"}, "type": "Feature"}, {"geometry": {"coordinates": [-122.45958, 38.278529999999996], "type": "Point"}, "properties": {"marker-symbol": "circle-15", "title": "Sonoma Valley Bike Tours & Rentals"}, "type": "Feature"}, {"geometry": {"coordinates": [-159.40329, 22.218025], "type": "Point"}, "properties": {"marker-symbol": "circle-15", "title": "Kileaua Point National Wildife Refuge Lighthouse"}, "type": "Feature"}, {"geometry": {"coordinates": [-83.24783000000001, 34.790890000000005], "type": "Point"}, "properties": {"marker-symbol": "circle-15", "title": "Chattooga Ridge Canopy Tours"}, "type": "Feature"}, {"geometry": {"coordinates": [-118.32795, 33.343140000000005], "type": "Point"}, "properties": {"marker-symbol": "circle-15", "title": "Catalina Transportation Services"}, "type": "Feature"}, {"geometry": {"coordinates": [-81.078964, 38.08632], "type": "Point"}, "properties": {"marker-symbol": "circle-15", "title": "Adventures on the Gorge"}, "type": "Feature"}, {"geometry": {"coordinates": [-81.80720500000001, 24.557945], "type": "Point"}, "properties": {"marker-symbol": "circle-15", "title": "Danger Charters"}, "type": "Feature"}, {"geometry": {"coordinates": [-120.75573999999999, 35.172325], "type": "Point"}, "properties": {"marker-symbol": "circle-15", "title": "Avila Beach Paddlesports"}, "type": "Feature"}, {"geometry": {"coordinates": [-71.05261, 42.35931], "type": "Point"}, "properties": {"marker-symbol": "circle-15", "title": "Boston Segway Tours"}, "type": "Feature"}, {"geometry": {"coordinates": [-78.8909, 33.6831], "type": "Point"}, "properties": {"marker-symbol": "circle-15", "title": "Ash Myrtle Beach ATV Tours"}, "type": "Feature"}, {"geometry": {"coordinates": [-156.67628, 20.87122], "type": "Point"}, "properties": {"marker-symbol": "circle-15", "title": "Opelu Surf School"}, "type": "Feature"}, {"geometry": {"coordinates": [-74.5717, 39.287426], "type": "Point"}, "properties": {"marker-symbol": "circle-15", "title": "FlyOCNJ Parasail"}, "type": "Feature"}, {"geometry": {"coordinates": [-121.90167, 36.618233000000004], "type": "Point"}, "properties": {"marker-symbol": "circle-15", "title": "Monterey Bay Aquarium"}, "type": "Feature"}, {"geometry": {"coordinates": [-155.23868000000002, 19.430513], "type": "Point"}, "properties": {"marker-symbol": "circle-15", "title": "Volcano Teapot Cottage"}, "type": "Feature"}, {"geometry": {"coordinates": [-79.46461500000001, 39.024048], "type": "Point"}, "properties": {"marker-symbol": "circle-15", "title": "Canaan Valley Resort"}, "type": "Feature"}, {"geometry": {"coordinates": [-80.69662, 32.222923], "type": "Point"}, "properties": {"marker-symbol": "circle-15", "title": "Hilton Head Heli Tours"}, "type": "Feature"}, {"geometry": {"coordinates": [-75.700386, 35.916656], "type": "Point"}, "properties": {"marker-symbol": "circle-15", "title": "Coastal Helicopters"}, "type": "Feature"}, {"geometry": {"coordinates": [-79.95089, 32.779379999999996], "type": "Point"}, "properties": {"marker-symbol": "circle-15", "title": "Charleston Boat Charters"}, "type": "Feature"}, {"geometry": {"coordinates": [-118.38811499999998, 33.379505], "type": "Point"}, "properties": {"marker-symbol": "circle-15", "title": "Sky Line Drive"}, "type": "Feature"}, {"geometry": {"coordinates": [-105.57692, 40.327503], "type": "Point"}, "properties": {"marker-symbol": "circle-15", "title": "Estes Park Campground at East Portal"}, "type": "Feature"}, {"geometry": {"coordinates": [-157.86118000000002, 21.309368], "type": "Point"}, "properties": {"marker-symbol": "circle-15", "title": "Aston at the Executive Centre Hotel"}, "type": "Feature"}, {"geometry": {"coordinates": [-110.7485, 43.766999999999996], "type": "Point"}, "properties": {"marker-symbol": "circle-15", "title": "Jenny Lake"}, "type": "Feature"}, {"geometry": {"coordinates": [-123.91476999999999, 45.55899], "type": "Point"}, "properties": {"marker-symbol": "circle-15", "title": "Garibaldi Charters"}, "type": "Feature"}, {"geometry": {"coordinates": [-114.92863500000001, 36.103127], "type": "Point"}, "properties": {"marker-symbol": "circle-15", "title": "Flyboard Las Vegas"}, "type": "Feature"}, {"geometry": {"coordinates": [-155.12932, 19.899025], "type": "Point"}, "properties": {"marker-symbol": "circle-15", "title": "Segway Off Road at Botanical World Adventures"}, "type": "Feature"}, {"geometry": {"coordinates": [-110.55488600000001, 45.671974], "type": "Point"}, "properties": {"marker-symbol": "circle-15", "title": "63 Ranch"}, "type": "Feature"}, {"geometry": {"coordinates": [-106.8165, 39.187059999999995], "type": "Point"}, "properties": {"marker-symbol": "circle-15", "title": "Aspen Paragliding"}, "type": "Feature"}, {"geometry": {"coordinates": [-123.06201999999999, 38.437393], "type": "Point"}, "properties": {"marker-symbol": "circle-15", "title": "Bodega Dunes Campground"}, "type": "Feature"}, {"geometry": {"coordinates": [-150.09861999999998, 62.32122], "type": "Point"}, "properties": {"marker-symbol": "circle-15", "title": "Talkeetna Air Taxi"}, "type": "Feature"}, {"geometry": {"coordinates": [-98.75605, 30.178990999999996], "type": "Point"}, "properties": {"marker-symbol": "circle-15", "title": "Luckenbach Dance Hall"}, "type": "Feature"}, {"geometry": {"coordinates": [-73.97961, 40.765840000000004], "type": "Point"}, "properties": {"marker-symbol": "circle-15", "title": "Eco Central Park Tours"}, "type": "Feature"}, {"geometry": {"coordinates": [-91.03523, 46.8974], "type": "Point"}, "properties": {"marker-symbol": "circle-15", "title": "Apostle Islands National Lakeshore Ice Caves"}, "type": "Feature"}, {"geometry": {"coordinates": [-117.17249, 32.719315], "type": "Point"}, "properties": {"marker-symbol": "circle-15", "title": "San Diego Segway Tours by Wheel Fun Rentals"}, "type": "Feature"}, {"geometry": {"coordinates": [-72.39787, 43.637890000000006], "type": "Point"}, "properties": {"marker-symbol": "circle-15", "title": "Quechee Segway"}, "type": "Feature"}, {"geometry": {"coordinates": [-81.26939399999999, 28.808515999999997], "type": "Point"}, "properties": {"marker-symbol": "circle-15", "title": "Higgins House Victorian Bed and Breakfast"}, "type": "Feature"}, {"geometry": {"coordinates": [-107.81200000000001, 37.906166], "type": "Point"}, "properties": {"marker-symbol": "circle-15", "title": "Bear Creek Falls"}, "type": "Feature"}, {"geometry": {"coordinates": [-116.86578999999999, 33.357887], "type": "Point"}, "properties": {"marker-symbol": "circle-15", "title": "Palomar Observatory"}, "type": "Feature"}, {"geometry": {"coordinates": [-112.08594, 37.48284], "type": "Point"}, "properties": {"marker-symbol": "circle-15", "title": "Willis Creek Slot Canyon"}, "type": "Feature"}, {"geometry": {"coordinates": [-122.4815, 37.827656], "type": "Point"}, "properties": {"marker-symbol": "circle-15", "title": "Battery Spencer"}, "type": "Feature"}, {"geometry": {"coordinates": [-111.03346, 45.67901], "type": "Point"}, "properties": {"marker-symbol": "circle-15", "title": "Greater Yellowstone Guides"}, "type": "Feature"}, {"geometry": {"coordinates": [-82.05341, 26.442120000000003], "type": "Point"}, "properties": {"marker-symbol": "circle-15", "title": "Segway Tours of Sanibel"}, "type": "Feature"}, {"geometry": {"coordinates": [-122.41591000000001, 37.80695], "type": "Point"}, "properties": {"marker-symbol": "circle-15", "title": "San Francisco Segway Tours"}, "type": "Feature"}, {"geometry": {"coordinates": [-118.39922, 34.062459999999994], "type": "Point"}, "properties": {"marker-symbol": "circle-15", "title": "Paparazzi Celebrity Tours"}, "type": "Feature"}, {"geometry": {"coordinates": [-104.99446999999999, 39.743809999999996], "type": "Point"}, "properties": {"marker-symbol": "circle-15", "title": "ScooTours Denver Scooter Rental"}, "type": "Feature"}, {"geometry": {"coordinates": [-158.04945, 21.631104999999998], "type": "Point"}, "properties": {"marker-symbol": "circle-15", "title": "Oahu Private Tours"}, "type": "Feature"}, {"geometry": {"coordinates": [-75.02038, 40.58801], "type": "Point"}, "properties": {"marker-symbol": "circle-15", "title": "Skydive Jersey"}, "type": "Feature"}, {"geometry": {"coordinates": [-77.22484, 39.81069], "type": "Point"}, "properties": {"marker-symbol": "circle-15", "title": "Gettysburg National Military Park"}, "type": "Feature"}, {"geometry": {"coordinates": [-105.13041000000001, 40.55515], "type": "Point"}, "properties": {"marker-symbol": "circle-15", "title": "Beer & Bike Day Tours"}, "type": "Feature"}, {"geometry": {"coordinates": [0.0, 0.0], "type": "Point"}, "properties": {"marker-symbol": "circle-15", "title": "Piedra Falls"}, "type": "Feature"}, {"geometry": {"coordinates": [-92.068665, 46.814587], "type": "Point"}, "properties": {"marker-symbol": "circle-15", "title": "A G Thomson House Bed and Breakfast"}, "type": "Feature"}, {"geometry": {"coordinates": [-72.76616999999999, 44.51656], "type": "Point"}, "properties": {"marker-symbol": "circle-15", "title": "Bingham Falls"}, "type": "Feature"}, {"geometry": {"coordinates": [-73.97269399999999, 40.774994], "type": "Point"}, "properties": {"marker-symbol": "circle-15", "title": "Richie's Central Park Pedicab Tours"}, "type": "Feature"}, {"geometry": {"coordinates": [-110.09705, 36.97672], "type": "Point"}, "properties": {"marker-symbol": "circle-15", "title": "Monument Valley Navajo Tribal Park"}, "type": "Feature"}, {"geometry": {"coordinates": [-78.906075, 33.67207], "type": "Point"}, "properties": {"marker-symbol": "circle-15", "title": "Radical Ropes"}, "type": "Feature"}, {"geometry": {"coordinates": [-116.7833, 47.673140000000004], "type": "Point"}, "properties": {"marker-symbol": "circle-15", "title": "Timberline Adventures"}, "type": "Feature"}, {"geometry": {"coordinates": [-108.21202, 43.64447], "type": "Point"}, "properties": {"marker-symbol": "circle-15", "title": "Wind River Canyon"}, "type": "Feature"}, {"geometry": {"coordinates": [-112.32021, 37.74685], "type": "Point"}, "properties": {"marker-symbol": "circle-15", "title": "Red Canyon"}, "type": "Feature"}, {"geometry": {"coordinates": [-73.9845, 40.76317], "type": "Point"}, "properties": {"marker-symbol": "circle-15", "title": "Jersey Boys"}, "type": "Feature"}, {"geometry": {"coordinates": [-118.71706, 36.443979999999996], "type": "Point"}, "properties": {"marker-symbol": "circle-15", "title": "Mineral King Road"}, "type": "Feature"}, {"geometry": {"coordinates": [-119.94827, 39.005604], "type": "Point"}, "properties": {"marker-symbol": "circle-15", "title": "Zephyr Cove Resort"}, "type": "Feature"}, {"geometry": {"coordinates": [-111.76104, 34.868877000000005], "type": "Point"}, "properties": {"marker-symbol": "circle-15", "title": "Pink Jeep Tours Sedona"}, "type": "Feature"}, {"geometry": {"coordinates": [-157.85585, 21.29682], "type": "Point"}, "properties": {"marker-symbol": "circle-15", "title": "On The Rocks Adventures"}, "type": "Feature"}, {"geometry": {"coordinates": [-75.8275, 36.36452], "type": "Point"}, "properties": {"marker-symbol": "circle-15", "title": "North Beach Watersports"}, "type": "Feature"}, {"geometry": {"coordinates": [-71.87884, 43.012028], "type": "Point"}, "properties": {"marker-symbol": "circle-15", "title": "Crotched Mountain Ski and Ride"}, "type": "Feature"}, {"geometry": {"coordinates": [-115.24318999999998, 35.827564], "type": "Point"}, "properties": {"marker-symbol": "circle-15", "title": "DeTour Vegas - Private Day Tours"}, "type": "Feature"}, {"geometry": {"coordinates": [-80.14449, 25.791829999999997], "type": "Point"}, "properties": {"marker-symbol": "circle-15", "title": "Kustom Water Sports"}, "type": "Feature"}, {"geometry": {"coordinates": [-77.049164, 38.8895], "type": "Point"}, "properties": {"marker-symbol": "circle-15", "title": "Walk of the Town"}, "type": "Feature"}, {"geometry": {"coordinates": [-82.95727, 35.796023999999996], "type": "Point"}, "properties": {"marker-symbol": "circle-15", "title": "Max Patch"}, "type": "Feature"}, {"geometry": {"coordinates": [-80.17698, 25.746560000000002], "type": "Point"}, "properties": {"marker-symbol": "circle-15", "title": "Miami Seaplane Tours"}, "type": "Feature"}, {"geometry": {"coordinates": [-119.94049, 38.934776], "type": "Point"}, "properties": {"marker-symbol": "circle-15", "title": "The Gondola at Heavenly"}, "type": "Feature"}, {"geometry": {"coordinates": [-122.16563000000001, 42.958588], "type": "Point"}, "properties": {"marker-symbol": "circle-15", "title": "Rim Drive"}, "type": "Feature"}, {"geometry": {"coordinates": [-122.05548, 37.0528], "type": "Point"}, "properties": {"marker-symbol": "circle-15", "title": "Redwood Canopy Tours"}, "type": "Feature"}, {"geometry": {"coordinates": [-68.20474, 44.39154], "type": "Point"}, "properties": {"marker-symbol": "circle-15", "title": "Acadia Air Tours"}, "type": "Feature"}, {"geometry": {"coordinates": [-81.04047, 24.727938], "type": "Point"}, "properties": {"marker-symbol": "circle-15", "title": "Keys Kayak LLC"}, "type": "Feature"}, {"geometry": {"coordinates": [-80.09233, 26.311671999999998], "type": "Point"}, "properties": {"marker-symbol": "circle-15", "title": "Dixie Divers"}, "type": "Feature"}, {"geometry": {"coordinates": [-159.33353, 22.05272], "type": "Point"}, "properties": {"marker-symbol": "circle-15", "title": "Wailua Kayak & Canoe"}, "type": "Feature"}, {"geometry": {"coordinates": [-83.88893, 39.81001], "type": "Point"}, "properties": {"marker-symbol": "circle-15", "title": "Yellow Springs Brewery"}, "type": "Feature"}, {"geometry": {"coordinates": [-112.52593, 37.046913], "type": "Point"}, "properties": {"marker-symbol": "circle-15", "title": "Windows Of The West Hummer Tours"}, "type": "Feature"}, {"geometry": {"coordinates": [-116.74587, 32.851055], "type": "Point"}, "properties": {"marker-symbol": "circle-15", "title": "Sky Falconry"}, "type": "Feature"}, {"geometry": {"coordinates": [-79.92736, 32.780964000000004], "type": "Point"}, "properties": {"marker-symbol": "circle-15", "title": "Oyster Point Historic Walking Tours"}, "type": "Feature"}, {"geometry": {"coordinates": [-73.93984, 41.71048], "type": "Point"}, "properties": {"marker-symbol": "circle-15", "title": "Walkway Over the Hudson State Historic Park"}, "type": "Feature"}, {"geometry": {"coordinates": [0.0, 0.0], "type": "Point"}, "properties": {"marker-symbol": "circle-15", "title": "Crater Lake - Volcano Boat Tours"}, "type": "Feature"}, {"geometry": {"coordinates": [-124.08344, 41.790172999999996], "type": "Point"}, "properties": {"marker-symbol": "circle-15", "title": "Stout Grove"}, "type": "Feature"}, {"geometry": {"coordinates": [-98.4657, 29.35329], "type": "Point"}, "properties": {"marker-symbol": "circle-15", "title": "Mission Trail"}, "type": "Feature"}, {"geometry": {"coordinates": [-88.06199000000001, 45.863262], "type": "Point"}, "properties": {"marker-symbol": "circle-15", "title": "Northwoods Adventures"}, "type": "Feature"}, {"geometry": {"coordinates": [-156.44505, 20.708748], "type": "Point"}, "properties": {"marker-symbol": "circle-15", "title": "Redline Rafting Co."}, "type": "Feature"}, {"geometry": {"coordinates": [-71.587654, 43.731144], "type": "Point"}, "properties": {"marker-symbol": "circle-15", "title": "Experience Squam"}, "type": "Feature"}, {"geometry": {"coordinates": [-97.744026, 30.265459999999997], "type": "Point"}, "properties": {"marker-symbol": "circle-15", "title": "Austin Bike Tours and Rentals"}, "type": "Feature"}, {"geometry": {"coordinates": [-92.4619, 34.84393], "type": "Point"}, "properties": {"marker-symbol": "circle-15", "title": "Pinnacle Mountain State Park"}, "type": "Feature"}, {"geometry": {"coordinates": [-155.82551999999998, 19.10926], "type": "Point"}, "properties": {"marker-symbol": "circle-15", "title": "Pat's Taqueria"}, "type": "Feature"}, {"geometry": {"coordinates": [-80.13973, 25.772485999999997], "type": "Point"}, "properties": {"marker-symbol": "circle-15", "title": "American WaterSports South Beach"}, "type": "Feature"}, {"geometry": {"coordinates": [-114.44268000000001, 36.53952], "type": "Point"}, "properties": {"marker-symbol": "circle-15", "title": "Law Powersports: Ultimate Desert Adventures"}, "type": "Feature"}, {"geometry": {"coordinates": [-155.09306, 19.78347], "type": "Point"}, "properties": {"marker-symbol": "circle-15", "title": "Hawaii Plantation Museum"}, "type": "Feature"}, {"geometry": {"coordinates": [-115.17087, 36.114323], "type": "Point"}, "properties": {"marker-symbol": "circle-15", "title": "The Bronx Wanderers"}, "type": "Feature"}, {"geometry": {"coordinates": [-106.1455, 38.860157], "type": "Point"}, "properties": {"marker-symbol": "circle-15", "title": "Browns Canyon Rafting"}, "type": "Feature"}, {"geometry": {"coordinates": [-110.76646000000001, 43.4796], "type": "Point"}, "properties": {"marker-symbol": "circle-15", "title": "Teton Wagon Train & Horse Adventure"}, "type": "Feature"}, {"geometry": {"coordinates": [-111.92556, 33.623642], "type": "Point"}, "properties": {"marker-symbol": "circle-15", "title": "Wild West Jeep Tours"}, "type": "Feature"}, {"geometry": {"coordinates": [-106.02068, 39.452746999999995], "type": "Point"}, "properties": {"marker-symbol": "circle-15", "title": "Boreas Pass Road"}, "type": "Feature"}, {"geometry": {"coordinates": [-81.38453, 25.866604000000002], "type": "Point"}, "properties": {"marker-symbol": "circle-15", "title": "Everglades Fishing Charters"}, "type": "Feature"}, {"geometry": {"coordinates": [-156.66673, 20.984987], "type": "Point"}, "properties": {"marker-symbol": "circle-15", "title": "Boss Frog's Dive and Surf Shop"}, "type": "Feature"}, {"geometry": {"coordinates": [-80.31436, 26.13735], "type": "Point"}, "properties": {"marker-symbol": "circle-15", "title": "QLS Transportation Day Tours"}, "type": "Feature"}, {"geometry": {"coordinates": [-98.48801, 29.423132], "type": "Point"}, "properties": {"marker-symbol": "circle-15", "title": "Rio San Antonio Cruises"}, "type": "Feature"}, {"geometry": {"coordinates": [-68.71956999999999, 45.676083], "type": "Point"}, "properties": {"marker-symbol": "circle-15", "title": "Wilderness Edge Campground"}, "type": "Feature"}, {"geometry": {"coordinates": [0.0, 0.0], "type": "Point"}, "properties": {"marker-symbol": "circle-15", "title": "Museum Hack DC"}, "type": "Feature"}, {"geometry": {"coordinates": [-90.04899999999999, 35.155], "type": "Point"}, "properties": {"marker-symbol": "circle-15", "title": "Main Street Trolley"}, "type": "Feature"}, {"geometry": {"coordinates": [-121.31545, 44.0506], "type": "Point"}, "properties": {"marker-symbol": "circle-15", "title": "Let it Ride Electric Bikes Tours & Rentals"}, "type": "Feature"}, {"geometry": {"coordinates": [-80.60804, 28.292439], "type": "Point"}, "properties": {"marker-symbol": "circle-15", "title": "Beach Place Guesthouses"}, "type": "Feature"}, {"geometry": {"coordinates": [-80.634796, 24.916242999999998], "type": "Point"}, "properties": {"marker-symbol": "circle-15", "title": "Purple Island Parasail"}, "type": "Feature"}, {"geometry": {"coordinates": [-87.30542, 36.56838], "type": "Point"}, "properties": {"marker-symbol": "circle-15", "title": "Cheddar's"}, "type": "Feature"}, {"geometry": {"coordinates": [-87.627815, 41.885653999999995], "type": "Point"}, "properties": {"marker-symbol": "circle-15", "title": "The Chicago Theatre"}, "type": "Feature"}, {"geometry": {"coordinates": [-112.18858, 36.065437], "type": "Point"}, "properties": {"marker-symbol": "circle-15", "title": "Hermit Road"}, "type": "Feature"}, {"geometry": {"coordinates": [-72.70129399999999, 41.766895], "type": "Point"}, "properties": {"marker-symbol": "circle-15", "title": "The Mark Twain House & Museum"}, "type": "Feature"}, {"geometry": {"coordinates": [-81.31853000000001, 29.891327], "type": "Point"}, "properties": {"marker-symbol": "circle-15", "title": "St. Augustine Bike Rentals"}, "type": "Feature"}, {"geometry": {"coordinates": [-80.66359, 28.21009], "type": "Point"}, "properties": {"marker-symbol": "circle-15", "title": "Good Natured River Tours"}, "type": "Feature"}, {"geometry": {"coordinates": [-74.00299, 40.70698], "type": "Point"}, "properties": {"marker-symbol": "circle-15", "title": "New York Water Taxi"}, "type": "Feature"}, {"geometry": {"coordinates": [-84.39131, 35.030840000000005], "type": "Point"}, "properties": {"marker-symbol": "circle-15", "title": "Carolina Ocoee"}, "type": "Feature"}, {"geometry": {"coordinates": [-119.03896, 37.651608], "type": "Point"}, "properties": {"marker-symbol": "circle-15", "title": "Mammoth Mountain"}, "type": "Feature"}, {"geometry": {"coordinates": [-105.62321000000001, 40.377296], "type": "Point"}, "properties": {"marker-symbol": "circle-15", "title": "Moraine Park Stables"}, "type": "Feature"}, {"geometry": {"coordinates": [-79.46821, 38.698135], "type": "Point"}, "properties": {"marker-symbol": "circle-15", "title": "NROCKS Outdoor Adventures"}, "type": "Feature"}, {"geometry": {"coordinates": [-112.78125, 34.01983], "type": "Point"}, "properties": {"marker-symbol": "circle-15", "title": "Adventures of a Lifetime ATV"}, "type": "Feature"}, {"geometry": {"coordinates": [-155.96684, 19.579245], "type": "Point"}, "properties": {"marker-symbol": "circle-15", "title": "Kahaluu Beach"}, "type": "Feature"}, {"geometry": {"coordinates": [-93.26801999999999, 36.6489], "type": "Point"}, "properties": {"marker-symbol": "circle-15", "title": "Adventure Ziplines of Branson"}, "type": "Feature"}, {"geometry": {"coordinates": [-82.43191999999999, 36.098976], "type": "Point"}, "properties": {"marker-symbol": "circle-15", "title": "USA Raft"}, "type": "Feature"}, {"geometry": {"coordinates": [-81.018295, 29.209845], "type": "Point"}, "properties": {"marker-symbol": "circle-15", "title": "Three Brothers Boards Dolphin and Manatee Paddle Board Tours"}, "type": "Feature"}, {"geometry": {"coordinates": [-120.69058000000001, 35.6219], "type": "Point"}, "properties": {"marker-symbol": "circle-15", "title": "Uncorked Wine Tours"}, "type": "Feature"}, {"geometry": {"coordinates": [-122.14371000000001, 42.91584], "type": "Point"}, "properties": {"marker-symbol": "circle-15", "title": "Crater Lake"}, "type": "Feature"}, {"geometry": {"coordinates": [-80.15918, 25.8985], "type": "Point"}, "properties": {"marker-symbol": "circle-15", "title": "Knot Nancy Fishing Charters"}, "type": "Feature"}, {"geometry": {"coordinates": [-75.08764000000001, 38.33076], "type": "Point"}, "properties": {"marker-symbol": "circle-15", "title": "The Angler"}, "type": "Feature"}, {"geometry": {"coordinates": [-115.13763, 36.13865], "type": "Point"}, "properties": {"marker-symbol": "circle-15", "title": "Escapology"}, "type": "Feature"}, {"geometry": {"coordinates": [-77.14253000000001, 34.669975], "type": "Point"}, "properties": {"marker-symbol": "circle-15", "title": "Paddle NC"}, "type": "Feature"}, {"geometry": {"coordinates": [-73.712456, 43.423992], "type": "Point"}, "properties": {"marker-symbol": "circle-15", "title": "Parasail Joe's"}, "type": "Feature"}, {"geometry": {"coordinates": [-135.24084, 59.521954], "type": "Point"}, "properties": {"marker-symbol": "circle-15", "title": "Alaska Mountain Guides - Adventure Park & Zip Line"}, "type": "Feature"}, {"geometry": {"coordinates": [-106.68103, 35.155502], "type": "Point"}, "properties": {"marker-symbol": "circle-15", "title": "Air Carriage LLC"}, "type": "Feature"}, {"geometry": {"coordinates": [-157.77333000000002, 21.271944], "type": "Point"}, "properties": {"marker-symbol": "circle-15", "title": "Dolphin Quest"}, "type": "Feature"}, {"geometry": {"coordinates": [-122.522705, 38.558075], "type": "Point"}, "properties": {"marker-symbol": "circle-15", "title": "Larkmead Country Inn"}, "type": "Feature"}, {"geometry": {"coordinates": [-111.48741000000001, 40.48291], "type": "Point"}, "properties": {"marker-symbol": "circle-15", "title": "Rocky Mountain Outfitters"}, "type": "Feature"}, {"geometry": {"coordinates": [-121.81358, 46.933777], "type": "Point"}, "properties": {"marker-symbol": "circle-15", "title": "Sunrise Visitor Center"}, "type": "Feature"}, {"geometry": {"coordinates": [0.0, 0.0], "type": "Point"}, "properties": {"marker-symbol": "circle-15", "title": "Rocky Mountain Recreation of Utah"}, "type": "Feature"}, {"geometry": {"coordinates": [-116.89253000000001, 34.220566], "type": "Point"}, "properties": {"marker-symbol": "circle-15", "title": "Snow Summit"}, "type": "Feature"}, {"geometry": {"coordinates": [-118.34714, 33.32114], "type": "Point"}, "properties": {"marker-symbol": "circle-15", "title": "East End Adventure"}, "type": "Feature"}, {"geometry": {"coordinates": [-104.98662, 39.739277], "type": "Point"}, "properties": {"marker-symbol": "circle-15", "title": "Denver Free Walking Tours"}, "type": "Feature"}, {"geometry": {"coordinates": [-117.39676000000001, 33.207073], "type": "Point"}, "properties": {"marker-symbol": "circle-15", "title": "Learn to Surf with Heather Pine"}, "type": "Feature"}, {"geometry": {"coordinates": [-157.83183, 21.430854999999998], "type": "Point"}, "properties": {"marker-symbol": "circle-15", "title": "Godspeed Adventures - Day Tours"}, "type": "Feature"}, {"geometry": {"coordinates": [-149.72908, 60.484375], "type": "Point"}, "properties": {"marker-symbol": "circle-15", "title": "Alaska Horsemen Trail Adventures"}, "type": "Feature"}, {"geometry": {"coordinates": [-155.99745, 19.64087], "type": "Point"}, "properties": {"marker-symbol": "circle-15", "title": "Kailua Bay Charters - Glassbottom Boat Cruise"}, "type": "Feature"}, {"geometry": {"coordinates": [-103.601456, 43.765762], "type": "Point"}, "properties": {"marker-symbol": "circle-15", "title": "Black Hills Balloons"}, "type": "Feature"}, {"geometry": {"coordinates": [-112.9779, 37.212543], "type": "Point"}, "properties": {"marker-symbol": "circle-15", "title": "Zion Canyon Scenic Drive"}, "type": "Feature"}, {"geometry": {"coordinates": [-98.10694000000001, 29.73685], "type": "Point"}, "properties": {"marker-symbol": "circle-15", "title": "Rockin 'R' River Rides"}, "type": "Feature"}, {"geometry": {"coordinates": [-155.88475, 19.916629999999998], "type": "Point"}, "properties": {"marker-symbol": "circle-15", "title": "Ocean Sports Snorkel Adventure"}, "type": "Feature"}, {"geometry": {"coordinates": [-81.76078000000001, 26.711765000000003], "type": "Point"}, "properties": {"marker-symbol": "circle-15", "title": "Manatee & Eco River Tours"}, "type": "Feature"}, {"geometry": {"coordinates": [-68.18867, 44.320667], "type": "Point"}, "properties": {"marker-symbol": "circle-15", "title": "Park Loop Road"}, "type": "Feature"}, {"geometry": {"coordinates": [-158.1966, 21.449463], "type": "Point"}, "properties": {"marker-symbol": "circle-15", "title": "EO Wai'anae Tours"}, "type": "Feature"}, {"geometry": {"coordinates": [-73.166214, 42.63758], "type": "Point"}, "properties": {"marker-symbol": "circle-15", "title": "Mount Greylock"}, "type": "Feature"}, {"geometry": {"coordinates": [-122.85841, 48.657234], "type": "Point"}, "properties": {"marker-symbol": "circle-15", "title": "Moran State Park"}, "type": "Feature"}, {"geometry": {"coordinates": [-156.02254, 19.670026999999997], "type": "Point"}, "properties": {"marker-symbol": "circle-15", "title": "Kona Ocean Adventures"}, "type": "Feature"}, {"geometry": {"coordinates": [0.0, 0.0], "type": "Point"}, "properties": {"marker-symbol": "circle-15", "title": "The River Passage Water Taxi"}, "type": "Feature"}, {"geometry": {"coordinates": [-135.3142, 59.45885], "type": "Point"}, "properties": {"marker-symbol": "circle-15", "title": "Skagway Alaska Downtown"}, "type": "Feature"}, {"geometry": {"coordinates": [-106.93521000000001, 38.54418], "type": "Point"}, "properties": {"marker-symbol": "circle-15", "title": "Scenic River Tours"}, "type": "Feature"}, {"geometry": {"coordinates": [-71.67984, 44.097042], "type": "Point"}, "properties": {"marker-symbol": "circle-15", "title": "Flume Gorge"}, "type": "Feature"}, {"geometry": {"coordinates": [-81.3778, 28.57313], "type": "Point"}, "properties": {"marker-symbol": "circle-15", "title": "RazorFin Charters and Tours"}, "type": "Feature"}, {"geometry": {"coordinates": [-109.79347, 40.90315], "type": "Point"}, "properties": {"marker-symbol": "circle-15", "title": "Sheep Creek Geological Loop"}, "type": "Feature"}, {"geometry": {"coordinates": [-113.99956999999999, 47.014435], "type": "Point"}, "properties": {"marker-symbol": "circle-15", "title": "Montana Snowbowl"}, "type": "Feature"}, {"geometry": {"coordinates": [-156.67531, 20.8676], "type": "Point"}, "properties": {"marker-symbol": "circle-15", "title": "Maui Ocean Sports"}, "type": "Feature"}, {"geometry": {"coordinates": [-104.90328000000001, 38.788790000000006], "type": "Point"}, "properties": {"marker-symbol": "circle-15", "title": "Helen Hunt Falls"}, "type": "Feature"}, {"geometry": {"coordinates": [-111.57210500000001, 40.356243], "type": "Point"}, "properties": {"marker-symbol": "circle-15", "title": "High Country Adventure"}, "type": "Feature"}, {"geometry": {"coordinates": [0.0, 0.0], "type": "Point"}, "properties": {"marker-symbol": "circle-15", "title": "Ozark National Scenic Riverways"}, "type": "Feature"}, {"geometry": {"coordinates": [-156.01869, 19.691195], "type": "Point"}, "properties": {"marker-symbol": "circle-15", "title": "Hawaii Forest and Trail"}, "type": "Feature"}, {"geometry": {"coordinates": [-95.7769, 47.01108], "type": "Point"}, "properties": {"marker-symbol": "circle-15", "title": "Maplelag"}, "type": "Feature"}, {"geometry": {"coordinates": [-81.95366, 26.45545], "type": "Point"}, "properties": {"marker-symbol": "circle-15", "title": "Chubby's Tropical Adventures"}, "type": "Feature"}, {"geometry": {"coordinates": [-134.42348, 58.2998], "type": "Point"}, "properties": {"marker-symbol": "circle-15", "title": "Cycle Alaska"}, "type": "Feature"}, {"geometry": {"coordinates": [-115.175804, 36.095463], "type": "Point"}, "properties": {"marker-symbol": "circle-15", "title": "Menopause the Musical"}, "type": "Feature"}, {"geometry": {"coordinates": [-157.82347, 21.279045], "type": "Point"}, "properties": {"marker-symbol": "circle-15", "title": "Aqua Aloha Surf Waikiki"}, "type": "Feature"}, {"geometry": {"coordinates": [-115.00943000000001, 36.27326], "type": "Point"}, "properties": {"marker-symbol": "circle-15", "title": "Pure Speed Drag Racing Experience"}, "type": "Feature"}, {"geometry": {"coordinates": [-70.55909, 41.456364], "type": "Point"}, "properties": {"marker-symbol": "circle-15", "title": "Martha\u2019s Vineyard Tours and Transportation"}, "type": "Feature"}, {"geometry": {"coordinates": [-159.33553, 22.044729999999998], "type": "Point"}, "properties": {"marker-symbol": "circle-15", "title": "Learn to Surf"}, "type": "Feature"}, {"geometry": {"coordinates": [-72.69451, 44.45583], "type": "Point"}, "properties": {"marker-symbol": "circle-15", "title": "Stowe Snowmobile Tours"}, "type": "Feature"}, {"geometry": {"coordinates": [-117.15693, 32.71096], "type": "Point"}, "properties": {"marker-symbol": "circle-15", "title": "Adventures in San Diego"}, "type": "Feature"}, {"geometry": {"coordinates": [0.0, 0.0], "type": "Point"}, "properties": {"marker-symbol": "circle-15", "title": "River Rail Electric Streetcar"}, "type": "Feature"}, {"geometry": {"coordinates": [-71.93261, 41.05847], "type": "Point"}, "properties": {"marker-symbol": "circle-15", "title": "Susie E II Sportfishing"}, "type": "Feature"}, {"geometry": {"coordinates": [-118.96125, 36.740192], "type": "Point"}, "properties": {"marker-symbol": "circle-15", "title": "Grant Grove Cabins"}, "type": "Feature"}, {"geometry": {"coordinates": [-115.110855, 35.97591], "type": "Point"}, "properties": {"marker-symbol": "circle-15", "title": "Rio Secco Golf Club"}, "type": "Feature"}, {"geometry": {"coordinates": [-110.77686000000001, 43.626625], "type": "Point"}, "properties": {"marker-symbol": "circle-15", "title": "Laurance Rockefeller Preserve"}, "type": "Feature"}, {"geometry": {"coordinates": [-79.46461500000001, 39.024048], "type": "Point"}, "properties": {"marker-symbol": "circle-15", "title": "Canaan Valley Resort"}, "type": "Feature"}, {"geometry": {"coordinates": [-75.50444, 35.34648], "type": "Point"}, "properties": {"marker-symbol": "circle-15", "title": "Hatteras Island Boardsports"}, "type": "Feature"}, {"geometry": {"coordinates": [-73.97885, 40.76684], "type": "Point"}, "properties": {"marker-symbol": "circle-15", "title": "NYC Horse Carriage Rides"}, "type": "Feature"}, {"geometry": {"coordinates": [-156.6841, 20.960388000000002], "type": "Point"}, "properties": {"marker-symbol": "circle-15", "title": "Hale Mahina Beach Resort"}, "type": "Feature"}, {"geometry": {"coordinates": [-73.98478, 40.763763], "type": "Point"}, "properties": {"marker-symbol": "circle-15", "title": "New York Highly Rated Tours"}, "type": "Feature"}, {"geometry": {"coordinates": [-80.690315, 28.344894], "type": "Point"}, "properties": {"marker-symbol": "circle-15", "title": "Beachside Helicopters"}, "type": "Feature"}, {"geometry": {"coordinates": [-149.44081, 60.099785], "type": "Point"}, "properties": {"marker-symbol": "circle-15", "title": "Alaska SeaLife Center"}, "type": "Feature"}, {"geometry": {"coordinates": [0.0, 0.0], "type": "Point"}, "properties": {"marker-symbol": "circle-15", "title": "Hawaii Reise Tipps"}, "type": "Feature"}, {"geometry": {"coordinates": [-76.659615, 40.299118], "type": "Point"}, "properties": {"marker-symbol": "circle-15", "title": "Segway of Hershey"}, "type": "Feature"}, {"geometry": {"coordinates": [-111.80049, 41.744335], "type": "Point"}, "properties": {"marker-symbol": "circle-15", "title": "Beaver Mountain"}, "type": "Feature"}, {"geometry": {"coordinates": [-157.83876, 21.286116], "type": "Point"}, "properties": {"marker-symbol": "circle-15", "title": "Try Scuba Diving - Honolulu"}, "type": "Feature"}, {"geometry": {"coordinates": [-120.50106000000001, 34.510063], "type": "Point"}, "properties": {"marker-symbol": "circle-15", "title": "Jalama Beach County Park"}, "type": "Feature"}, {"geometry": {"coordinates": [-115.0028, 36.0345], "type": "Point"}, "properties": {"marker-symbol": "circle-15", "title": "Above All Las Vegas ATV Tours and Watercraft Rentals"}, "type": "Feature"}, {"geometry": {"coordinates": [-110.86, 44.618168], "type": "Point"}, "properties": {"marker-symbol": "circle-15", "title": "Firehole Canyon Drive"}, "type": "Feature"}, {"geometry": {"coordinates": [-96.81291, 33.09492], "type": "Point"}, "properties": {"marker-symbol": "circle-15", "title": "iFLY Dallas Indoor Skydiving"}, "type": "Feature"}, {"geometry": {"coordinates": [-120.09958, 38.962340000000005], "type": "Point"}, "properties": {"marker-symbol": "circle-15", "title": "Eagle Falls"}, "type": "Feature"}, {"geometry": {"coordinates": [-105.225204, 40.246871999999996], "type": "Point"}, "properties": {"marker-symbol": "circle-15", "title": "Rabbit Mountain"}, "type": "Feature"}, {"geometry": {"coordinates": [-68.818794, 45.726555], "type": "Point"}, "properties": {"marker-symbol": "circle-15", "title": "New England Outdoor Center NEOC - Day Tours"}, "type": "Feature"}, {"geometry": {"coordinates": [-122.06579599999999, 37.598255], "type": "Point"}, "properties": {"marker-symbol": "circle-15", "title": "iFLY Indoor Skydiving San Francisco Bay"}, "type": "Feature"}, {"geometry": {"coordinates": [-123.04738, 38.33355], "type": "Point"}, "properties": {"marker-symbol": "circle-15", "title": "Bodega Bay Sailing"}, "type": "Feature"}, {"geometry": {"coordinates": [-104.97698000000001, 39.572205], "type": "Point"}, "properties": {"marker-symbol": "circle-15", "title": "Centennial Canoe Outfitters - Day Tour"}, "type": "Feature"}, {"geometry": {"coordinates": [-82.78125, 27.785596999999996], "type": "Point"}, "properties": {"marker-symbol": "circle-15", "title": "Gators Parasail"}, "type": "Feature"}, {"geometry": {"coordinates": [-107.74966, 37.72694], "type": "Point"}, "properties": {"marker-symbol": "circle-15", "title": "Million Dollar Highway"}, "type": "Feature"}, {"geometry": {"coordinates": [-106.0993, 39.57568], "type": "Point"}, "properties": {"marker-symbol": "circle-15", "title": "Rebel Sports"}, "type": "Feature"}, {"geometry": {"coordinates": [-117.6219, 34.270084000000004], "type": "Point"}, "properties": {"marker-symbol": "circle-15", "title": "Mt. Baldy Ski Area"}, "type": "Feature"}, {"geometry": {"coordinates": [-112.94933, 37.2704], "type": "Point"}, "properties": {"marker-symbol": "circle-15", "title": "Zion National Park"}, "type": "Feature"}, {"geometry": {"coordinates": [0.0, 0.0], "type": "Point"}, "properties": {"marker-symbol": "circle-15", "title": "Denali Horseback Tours"}, "type": "Feature"}, {"geometry": {"coordinates": [-158.06238000000002, 21.648506], "type": "Point"}, "properties": {"marker-symbol": "circle-15", "title": "Blue Rush Surf School"}, "type": "Feature"}, {"geometry": {"coordinates": [-78.795784, 37.379025], "type": "Point"}, "properties": {"marker-symbol": "circle-15", "title": "Appomattox Court House National Historical Park"}, "type": "Feature"}, {"geometry": {"coordinates": [-106.09407, 38.679035], "type": "Point"}, "properties": {"marker-symbol": "circle-15", "title": "Bill Dvorak Rafting and Kayak Expeditions"}, "type": "Feature"}, {"geometry": {"coordinates": [-122.58605, 37.8622], "type": "Point"}, "properties": {"marker-symbol": "circle-15", "title": "Muir Beach Overlook"}, "type": "Feature"}, {"geometry": {"coordinates": [-159.32834, 22.05286], "type": "Point"}, "properties": {"marker-symbol": "circle-15", "title": "Ancient River Kayak"}, "type": "Feature"}, {"geometry": {"coordinates": [-122.36036000000001, 38.400864], "type": "Point"}, "properties": {"marker-symbol": "circle-15", "title": "Napa Valley Aloft Balloon Rides"}, "type": "Feature"}, {"geometry": {"coordinates": [-90.06433, 29.956999999999997], "type": "Point"}, "properties": {"marker-symbol": "circle-15", "title": "Witches Brew Tours"}, "type": "Feature"}, {"geometry": {"coordinates": [-97.17012, 26.077929], "type": "Point"}, "properties": {"marker-symbol": "circle-15", "title": "Osprey Cruises"}, "type": "Feature"}, {"geometry": {"coordinates": [-117.26068000000001, 32.933678], "type": "Point"}, "properties": {"marker-symbol": "circle-15", "title": "Torrey Pines State Natural Reserve"}, "type": "Feature"}, {"geometry": {"coordinates": [-156.68443, 20.95431], "type": "Point"}, "properties": {"marker-symbol": "circle-15", "title": "Maui Adventure Tours"}, "type": "Feature"}, {"geometry": {"coordinates": [-85.97903000000001, 37.1379], "type": "Point"}, "properties": {"marker-symbol": "circle-15", "title": "Onyx Cave"}, "type": "Feature"}, {"geometry": {"coordinates": [-100.02233000000001, 37.754333], "type": "Point"}, "properties": {"marker-symbol": "circle-15", "title": "Boot Hill Museum"}, "type": "Feature"}, {"geometry": {"coordinates": [-91.74689000000001, 30.30282], "type": "Point"}, "properties": {"marker-symbol": "circle-15", "title": "McGee's Landing - Atchafalaya Basin Swamp Tours"}, "type": "Feature"}, {"geometry": {"coordinates": [-115.17435, 36.102385999999996], "type": "Point"}, "properties": {"marker-symbol": "circle-15", "title": "The Big Apple Coaster & Arcade"}, "type": "Feature"}, {"geometry": {"coordinates": [-83.258995, 35.774628], "type": "Point"}, "properties": {"marker-symbol": "circle-15", "title": "Smoky Mountain Adventure Tours"}, "type": "Feature"}, {"geometry": {"coordinates": [-159.33456, 22.052205999999998], "type": "Point"}, "properties": {"marker-symbol": "circle-15", "title": "Kayak Wailua"}, "type": "Feature"}, {"geometry": {"coordinates": [-122.28733000000001, 38.284954], "type": "Point"}, "properties": {"marker-symbol": "circle-15", "title": "Platypus Wine Tours"}, "type": "Feature"}, {"geometry": {"coordinates": [-93.00565999999999, 34.442307], "type": "Point"}, "properties": {"marker-symbol": "circle-15", "title": "Adventureworks Hot Springs"}, "type": "Feature"}, {"geometry": {"coordinates": [-118.18633999999999, 33.768394], "type": "Point"}, "properties": {"marker-symbol": "circle-15", "title": "Nation Tours - Long Beach Segway Tours"}, "type": "Feature"}, {"geometry": {"coordinates": [-87.66623, 30.266264000000003], "type": "Point"}, "properties": {"marker-symbol": "circle-15", "title": "Gulf State Park"}, "type": "Feature"}, {"geometry": {"coordinates": [-122.41551000000001, 37.805240000000005], "type": "Point"}, "properties": {"marker-symbol": "circle-15", "title": "Bay City Bike Rentals and Tours"}, "type": "Feature"}, {"geometry": {"coordinates": [-88.89088000000001, 30.423977], "type": "Point"}, "properties": {"marker-symbol": "circle-15", "title": "Scarlet Pearl Casino Resort"}, "type": "Feature"}, {"geometry": {"coordinates": [-123.01756999999999, 48.533867], "type": "Point"}, "properties": {"marker-symbol": "circle-15", "title": "Discovery Sea Kayaks"}, "type": "Feature"}, {"geometry": {"coordinates": [-159.66197, 22.08513], "type": "Point"}, "properties": {"marker-symbol": "circle-15", "title": "Waimea Canyon"}, "type": "Feature"}, {"geometry": {"coordinates": [-157.82271, 21.268488], "type": "Point"}, "properties": {"marker-symbol": "circle-15", "title": "Beach Sunset Yoga Hawaii"}, "type": "Feature"}, {"geometry": {"coordinates": [-113.214455, 48.448215000000005], "type": "Point"}, "properties": {"marker-symbol": "circle-15", "title": "Travelers Rest Lodge"}, "type": "Feature"}, {"geometry": {"coordinates": [-151.51477, 59.639880000000005], "type": "Point"}, "properties": {"marker-symbol": "circle-15", "title": "Beluga Air - Flightseeing Tours"}, "type": "Feature"}, {"geometry": {"coordinates": [-79.92687, 32.77684], "type": "Point"}, "properties": {"marker-symbol": "circle-15", "title": "Charleston Sole Walking Tours"}, "type": "Feature"}, {"geometry": {"coordinates": [-82.96132, 35.57495], "type": "Point"}, "properties": {"marker-symbol": "circle-15", "title": "Cataloochee Valley Tours"}, "type": "Feature"}, {"geometry": {"coordinates": [-95.39075, 29.7192], "type": "Point"}, "properties": {"marker-symbol": "circle-15", "title": "Hermann Park"}, "type": "Feature"}, {"geometry": {"coordinates": [-119.03268, 37.630676], "type": "Point"}, "properties": {"marker-symbol": "circle-15", "title": "Mammoth Mountain Bike Park"}, "type": "Feature"}, {"geometry": {"coordinates": [-80.56956, 35.41297], "type": "Point"}, "properties": {"marker-symbol": "circle-15", "title": "Thrifty Adventures"}, "type": "Feature"}, {"geometry": {"coordinates": [-111.85345, 36.03284], "type": "Point"}, "properties": {"marker-symbol": "circle-15", "title": "All-Star Grand Canyon Tours"}, "type": "Feature"}, {"geometry": {"coordinates": [-78.94887, 33.6597], "type": "Point"}, "properties": {"marker-symbol": "circle-15", "title": "Horseback Riding of Myrtle Beach"}, "type": "Feature"}, {"geometry": {"coordinates": [-120.09827, 38.946476000000004], "type": "Point"}, "properties": {"marker-symbol": "circle-15", "title": "Inspiration Point Vista"}, "type": "Feature"}, {"geometry": {"coordinates": [-80.413155, 36.017395], "type": "Point"}, "properties": {"marker-symbol": "circle-15", "title": "Tanglewood Park"}, "type": "Feature"}, {"geometry": {"coordinates": [-117.1423, 32.634964000000004], "type": "Point"}, "properties": {"marker-symbol": "circle-15", "title": "Silver Strand State Beach"}, "type": "Feature"}, {"geometry": {"coordinates": [-112.01078000000001, 34.75357], "type": "Point"}, "properties": {"marker-symbol": "circle-15", "title": "Dead Horse Ranch State Park Campground"}, "type": "Feature"}, {"geometry": {"coordinates": [-135.46017, 58.12829], "type": "Point"}, "properties": {"marker-symbol": "circle-15", "title": "Icy Strait Point"}, "type": "Feature"}, {"geometry": {"coordinates": [-117.0783, 33.53691], "type": "Point"}, "properties": {"marker-symbol": "circle-15", "title": "California Dreamin' Balloon Adventures"}, "type": "Feature"}, {"geometry": {"coordinates": [-103.6789, 41.851585], "type": "Point"}, "properties": {"marker-symbol": "circle-15", "title": "Monument Valley Pathway"}, "type": "Feature"}, {"geometry": {"coordinates": [-79.94526, 32.671040000000005], "type": "Point"}, "properties": {"marker-symbol": "circle-15", "title": "Reel Time Charters"}, "type": "Feature"}, {"geometry": {"coordinates": [-122.58966000000001, 47.33927], "type": "Point"}, "properties": {"marker-symbol": "circle-15", "title": "Destiny Harbor Tours"}, "type": "Feature"}, {"geometry": {"coordinates": [-155.99643, 19.6404], "type": "Point"}, "properties": {"marker-symbol": "circle-15", "title": "UFO Parasail"}, "type": "Feature"}, {"geometry": {"coordinates": [-109.74427, 44.4598], "type": "Point"}, "properties": {"marker-symbol": "circle-15", "title": "Blackwater Creek Ranch"}, "type": "Feature"}, {"geometry": {"coordinates": [-75.96686600000001, 36.817863], "type": "Point"}, "properties": {"marker-symbol": "circle-15", "title": "Seth Broudy's School of Surf"}, "type": "Feature"}, {"geometry": {"coordinates": [-118.88218, 36.46105], "type": "Point"}, "properties": {"marker-symbol": "circle-15", "title": "The River Jewel Suites"}, "type": "Feature"}, {"geometry": {"coordinates": [-121.471115, 38.572340000000004], "type": "Point"}, "properties": {"marker-symbol": "circle-15", "title": "Sutter\u2019s Fort State Historic Park"}, "type": "Feature"}, {"geometry": {"coordinates": [-81.80353000000001, 24.561564999999998], "type": "Point"}, "properties": {"marker-symbol": "circle-15", "title": "Parawest Parasail Key West"}, "type": "Feature"}, {"geometry": {"coordinates": [-111.09968, 44.66032], "type": "Point"}, "properties": {"marker-symbol": "circle-15", "title": "Arrick's Fly Shop and Fly Fishing Tours"}, "type": "Feature"}, {"geometry": {"coordinates": [-112.2603, 37.53177], "type": "Point"}, "properties": {"marker-symbol": "circle-15", "title": "Natural Bridge"}, "type": "Feature"}, {"geometry": {"coordinates": [-111.97168, 41.22554], "type": "Point"}, "properties": {"marker-symbol": "circle-15", "title": "iFLY Utah Indoor Skydiving"}, "type": "Feature"}, {"geometry": {"coordinates": [-83.187325, 35.046627], "type": "Point"}, "properties": {"marker-symbol": "circle-15", "title": "Sunset Rock and Ravenel Park"}, "type": "Feature"}, {"geometry": {"coordinates": [-74.13274, 44.327690000000004], "type": "Point"}, "properties": {"marker-symbol": "circle-15", "title": "St. Regis Canoe Outfitters"}, "type": "Feature"}, {"geometry": {"coordinates": [-80.589714, 24.951324], "type": "Point"}, "properties": {"marker-symbol": "circle-15", "title": "Florida Keys Watersports Company"}, "type": "Feature"}, {"geometry": {"coordinates": [-122.46866599999998, 37.771465], "type": "Point"}, "properties": {"marker-symbol": "circle-15", "title": "Museum Hack SF"}, "type": "Feature"}, {"geometry": {"coordinates": [-115.47356, 36.12975], "type": "Point"}, "properties": {"marker-symbol": "circle-15", "title": "Red Rock Scooter Tours"}, "type": "Feature"}, {"geometry": {"coordinates": [-75.65394, 40.94639], "type": "Point"}, "properties": {"marker-symbol": "circle-15", "title": "Pocono Whitewater"}, "type": "Feature"}, {"geometry": {"coordinates": [-81.46129, 30.395464], "type": "Point"}, "properties": {"marker-symbol": "circle-15", "title": "North Florida Fishing Charters"}, "type": "Feature"}, {"geometry": {"coordinates": [-81.9539, 26.452059000000002], "type": "Point"}, "properties": {"marker-symbol": "circle-15", "title": "Paradise Parasail Inc."}, "type": "Feature"}, {"geometry": {"coordinates": [-122.76366000000002, 38.568000000000005], "type": "Point"}, "properties": {"marker-symbol": "circle-15", "title": "Chalk Hill Winery"}, "type": "Feature"}, {"geometry": {"coordinates": [-117.05944, 36.84833], "type": "Point"}, "properties": {"marker-symbol": "circle-15", "title": "Titus Canyon"}, "type": "Feature"}, {"geometry": {"coordinates": [-111.79321000000002, 34.82002], "type": "Point"}, "properties": {"marker-symbol": "circle-15", "title": "Cathedral Rock"}, "type": "Feature"}, {"geometry": {"coordinates": [-106.29077, 39.630863], "type": "Point"}, "properties": {"marker-symbol": "circle-15", "title": "Vail Racquet Club Mountain Resort"}, "type": "Feature"}, {"geometry": {"coordinates": [-110.54811000000001, 44.39186], "type": "Point"}, "properties": {"marker-symbol": "circle-15", "title": "Shurr Adventures"}, "type": "Feature"}, {"geometry": {"coordinates": [-122.60288, 45.363396], "type": "Point"}, "properties": {"marker-symbol": "circle-15", "title": "eNRG Kayaking"}, "type": "Feature"}, {"geometry": {"coordinates": [-122.44755, 37.752567], "type": "Point"}, "properties": {"marker-symbol": "circle-15", "title": "Twin Peaks"}, "type": "Feature"}, {"geometry": {"coordinates": [-86.91129000000001, 38.121326], "type": "Point"}, "properties": {"marker-symbol": "circle-15", "title": "Holiday World & Splashin' Safari"}, "type": "Feature"}, {"geometry": {"coordinates": [-80.18512, 32.617996000000005], "type": "Point"}, "properties": {"marker-symbol": "circle-15", "title": "Charleston Tea Plantation"}, "type": "Feature"}, {"geometry": {"coordinates": [-117.15227, 32.731667], "type": "Point"}, "properties": {"marker-symbol": "circle-15", "title": "California Tower"}, "type": "Feature"}, {"geometry": {"coordinates": [-103.73016, 44.374309999999994], "type": "Point"}, "properties": {"marker-symbol": "circle-15", "title": "Mt Roosevelt Monument"}, "type": "Feature"}, {"geometry": {"coordinates": [-84.90791, 32.068737], "type": "Point"}, "properties": {"marker-symbol": "circle-15", "title": "Providence Canyon State Outdoor Recreation Area"}, "type": "Feature"}, {"geometry": {"coordinates": [-117.2567, 32.854240000000004], "type": "Point"}, "properties": {"marker-symbol": "circle-15", "title": "La Jolla Dive"}, "type": "Feature"}, {"geometry": {"coordinates": [-157.83737, 21.293028], "type": "Point"}, "properties": {"marker-symbol": "circle-15", "title": "Hawaiian Escapades - Private Tours"}, "type": "Feature"}, {"geometry": {"coordinates": [-73.9709, 40.763992], "type": "Point"}, "properties": {"marker-symbol": "circle-15", "title": "Central Park Pedicab Tours"}, "type": "Feature"}, {"geometry": {"coordinates": [-103.42661, 43.89096], "type": "Point"}, "properties": {"marker-symbol": "circle-15", "title": "Gutzon Borglum Historical Center"}, "type": "Feature"}, {"geometry": {"coordinates": [-111.11255, 40.791140000000006], "type": "Point"}, "properties": {"marker-symbol": "circle-15", "title": "Luna Lobos Dog Sledding"}, "type": "Feature"}, {"geometry": {"coordinates": [-90.070045, 29.957182], "type": "Point"}, "properties": {"marker-symbol": "circle-15", "title": "FreeWheelin' Bike Tours"}, "type": "Feature"}, {"geometry": {"coordinates": [-80.12182, 25.817474], "type": "Point"}, "properties": {"marker-symbol": "circle-15", "title": "Lapis Spa"}, "type": "Feature"}, {"geometry": {"coordinates": [-73.987595, 40.744583], "type": "Point"}, "properties": {"marker-symbol": "circle-15", "title": "Family In New York"}, "type": "Feature"}, {"geometry": {"coordinates": [0.0, 0.0], "type": "Point"}, "properties": {"marker-symbol": "circle-15", "title": "YExplore Yosemite Adventures - Day Tours"}, "type": "Feature"}, {"geometry": {"coordinates": [0.0, 0.0], "type": "Point"}, "properties": {"marker-symbol": "circle-15", "title": "Stock Car Racing Experience"}, "type": "Feature"}, {"geometry": {"coordinates": [-122.47773000000001, 37.82359], "type": "Point"}, "properties": {"marker-symbol": "circle-15", "title": "Adventure Cat Sailing Charters"}, "type": "Feature"}, {"geometry": {"coordinates": [-81.85854, 26.581308], "type": "Point"}, "properties": {"marker-symbol": "circle-15", "title": "Classic Air Ventures"}, "type": "Feature"}, {"geometry": {"coordinates": [-81.72448, 25.983603], "type": "Point"}, "properties": {"marker-symbol": "circle-15", "title": "Cool Beans Cruises"}, "type": "Feature"}, {"geometry": {"coordinates": [-80.44648000000001, 37.8325], "type": "Point"}, "properties": {"marker-symbol": "circle-15", "title": "Lost World Caverns"}, "type": "Feature"}, {"geometry": {"coordinates": [-80.13211, 25.789343], "type": "Point"}, "properties": {"marker-symbol": "circle-15", "title": "Aquajet Miami Beach"}, "type": "Feature"}, {"geometry": {"coordinates": [-93.174835, 34.621666], "type": "Point"}, "properties": {"marker-symbol": "circle-15", "title": "Lake Ouachita"}, "type": "Feature"}, {"geometry": {"coordinates": [-107.31551999999999, 43.950590000000005], "type": "Point"}, "properties": {"marker-symbol": "circle-15", "title": "Red Reflet Ranch"}, "type": "Feature"}, {"geometry": {"coordinates": [-71.315025, 41.484737], "type": "Point"}, "properties": {"marker-symbol": "circle-15", "title": "Bird's Eye View Helicopters"}, "type": "Feature"}, {"geometry": {"coordinates": [-119.96986000000001, 38.937909999999995], "type": "Point"}, "properties": {"marker-symbol": "circle-15", "title": "Heavenly Valley Scenic Gondola Ride"}, "type": "Feature"}, {"geometry": {"coordinates": [-81.79646, 24.560745], "type": "Point"}, "properties": {"marker-symbol": "circle-15", "title": "Heron House Court"}, "type": "Feature"}, {"geometry": {"coordinates": [-105.56700000000001, 39.430668], "type": "Point"}, "properties": {"marker-symbol": "circle-15", "title": "North Fork Ranch"}, "type": "Feature"}, {"geometry": {"coordinates": [-117.173325, 32.720352], "type": "Point"}, "properties": {"marker-symbol": "circle-15", "title": "Next Level Sailing"}, "type": "Feature"}, {"geometry": {"coordinates": [-146.34874, 61.12706800000001], "type": "Point"}, "properties": {"marker-symbol": "circle-15", "title": "Pangaea Adventures Day Tours"}, "type": "Feature"}, {"geometry": {"coordinates": [-111.03295, 32.252320000000005], "type": "Point"}, "properties": {"marker-symbol": "circle-15", "title": "Tucson Balloon Rides"}, "type": "Feature"}, {"geometry": {"coordinates": [-122.02213, 47.50038], "type": "Point"}, "properties": {"marker-symbol": "circle-15", "title": "Parafly Paragliding"}, "type": "Feature"}, {"geometry": {"coordinates": [-111.92088000000001, 34.612804], "type": "Point"}, "properties": {"marker-symbol": "circle-15", "title": "Predator Zip Lines"}, "type": "Feature"}, {"geometry": {"coordinates": [-80.76186, 25.66403], "type": "Point"}, "properties": {"marker-symbol": "circle-15", "title": "Shark Valley Tram Tours"}, "type": "Feature"}, {"geometry": {"coordinates": [-112.16871, 37.622386999999996], "type": "Point"}, "properties": {"marker-symbol": "circle-15", "title": "Bryce Canyon National Park"}, "type": "Feature"}, {"geometry": {"coordinates": [-111.11591999999999, 33.644527000000004], "type": "Point"}, "properties": {"marker-symbol": "circle-15", "title": "Tonto National Monument"}, "type": "Feature"}, {"geometry": {"coordinates": [-151.66528, 60.044940000000004], "type": "Point"}, "properties": {"marker-symbol": "circle-15", "title": "Afishunt Charters"}, "type": "Feature"}, {"geometry": {"coordinates": [-116.379425, 33.73021], "type": "Point"}, "properties": {"marker-symbol": "circle-15", "title": "McCallum Theatre for the Performing Arts"}, "type": "Feature"}, {"geometry": {"coordinates": [-81.119026, 37.596012], "type": "Point"}, "properties": {"marker-symbol": "circle-15", "title": "Winterplace Ski Resort"}, "type": "Feature"}, {"geometry": {"coordinates": [-111.95023, 33.51445], "type": "Point"}, "properties": {"marker-symbol": "circle-15", "title": "Cholla Trail"}, "type": "Feature"}, {"geometry": {"coordinates": [-87.62699, 41.887478], "type": "Point"}, "properties": {"marker-symbol": "circle-15", "title": "Chicago River"}, "type": "Feature"}, {"geometry": {"coordinates": [0.0, 0.0], "type": "Point"}, "properties": {"marker-symbol": "circle-15", "title": "Kayak Charters"}, "type": "Feature"}, {"geometry": {"coordinates": [-122.93175, 44.838432], "type": "Point"}, "properties": {"marker-symbol": "circle-15", "title": "Willamette River bike trail"}, "type": "Feature"}, {"geometry": {"coordinates": [-106.01700000000001, 36.50526], "type": "Point"}, "properties": {"marker-symbol": "circle-15", "title": "Columbine Trail"}, "type": "Feature"}, {"geometry": {"coordinates": [-80.18438, 25.790913], "type": "Point"}, "properties": {"marker-symbol": "circle-15", "title": "Jet Boat Miami"}, "type": "Feature"},